ID,LICENSE ID,ACCOUNT NUMBER,SITE NUMBER,LEGAL NAME,DOING BUSINESS AS NAME,ADDRESS,CITY,STATE,ZIP CODE,WARD,PRECINCT,WARD PRECINCT,POLICE DISTRICT,LICENSE CODE,LICENSE DESCRIPTION,BUSINESS ACTIVITY ID,BUSINESS ACTIVITY,LICENSE NUMBER,APPLICATION TYPE,APPLICATION CREATED DATE,APPLICATION REQUIREMENTS COMPLETE,PAYMENT DATE,CONDITIONAL APPROVAL,LICENSE TERM START DATE,LICENSE TERM EXPIRATION DATE,LICENSE APPROVED FOR ISSUANCE,DATE ISSUED,LICENSE STATUS,LICENSE STATUS CHANGE DATE,SSA,LATITUDE,LONGITUDE,LOCATION
42880-20250316,3007531,16242,1,"THE CHEESECAKE FACTORY RESTAURANTS, INC.",THE CHEESECAKE FACTORY,875 N MICHIGAN AVE,CHICAGO,IL,60611,2,43,2-43,18,1477,Outdoor Patio,784,Sale of Liquor Outdoors on Private Property,42880,RENEW,,01/15/2025,02/11/2025,N,03/16/2025,03/15/2027,02/11/2025,02/13/2025,AAI,,,41.898948542,-87.623974988,POINT (-87.62397498768968 41.898948541729865)
22868-20250316,3008206,86723,1,THE MUSEUM OF CONTEMPORARY ART,THE MUSEUM OF CONTEMPORARY ART,220 E CHICAGO AVE 1ST,CHICAGO,IL,60611,2,10,2-10,18,1477,Outdoor Patio,784,Sale of Liquor Outdoors on Private Property,22868,RENEW,,01/15/2025,01/23/2025,N,03/16/2025,03/15/2027,01/23/2025,01/24/2025,AAI,,,41.896876962,-87.621934031,POINT (-87.62193403116551 41.89687696199614)
1122866-20250316,3008253,206313,1,PENINSULA CHICAGO LLC,"PENINSULA CHICAGO, LLC",108 E SUPERIOR ST,CHICAGO,IL,60611,2,48,2-48,18,1477,Outdoor Patio,784,Sale of Liquor Outdoors on Private Property,1122866,RENEW,,01/15/2025,02/13/2025,N,03/16/2025,03/15/2027,02/13/2025,02/14/2025,AAI,,,41.895839638,-87.624988141,POINT (-87.62498814131581 41.89583963820686)
2506315-20250316,3008252,206313,1,PENINSULA CHICAGO LLC,"PENINSULA CHICAGO, LLC",108 E SUPERIOR ST,CHICAGO,IL,60611,2,48,2-48,18,1477,Outdoor Patio,784,Sale of Liquor Outdoors on Private Property,2506315,RENEW,,01/15/2025,02/13/2025,N,03/16/2025,03/15/2027,02/13/2025,02/14/2025,AAI,,,41.895839638,-87.624988141,POINT (-87.62498814131581 41.89583963820686)
1804578-20250316,3008781,315430,1,"DUBLIN 4, INC.",D4 IRISH PUB & CAFE,345 E OHIO ST 1,CHICAGO,IL,60611,2,41,2-41,18,1477,Outdoor Patio,784,Sale of Liquor Outdoors on Private Property,1804578,RENEW,,01/15/2025,02/13/2025,N,03/16/2025,03/15/2027,02/13/2025,02/14/2025,AAI,,,41.892518301,-87.618502427,POINT (-87.61850242693725 41.89251830082217)
1803485-20250316,3008307,220603,1,"SLA UNO, INC.",PIZZERIA UNO CHICAGO BAR & GRILL,29 E OHIO ST,CHICAGO,IL,60611,42,22,42-22,18,1477,Outdoor Patio,784,Sale of Liquor Outdoors on Private Property,1803485,RENEW,,01/15/2025,01/22/2025,N,03/16/2025,03/15/2027,01/22/2025,01/31/2025,AAI,,,41.892383417,-87.626804787,POINT (-87.6268047865619 41.89238341663872)
2550140-20250316,3008207,86723,3,THE MUSEUM OF CONTEMPORARY ART,MCA WAREHOUSE,1747 W HUBBARD ST,CHICAGO,IL,60622,27,27,27-27,12,1050,Public Place of Amusement,971,Industrial Private Event Venue,2550140,RENEW,,01/15/2025,01/23/2025,N,03/16/2025,03/15/2027,01/23/2025,01/24/2025,AAI,,,41.889708209,-87.671416988,POINT (-87.67141698827098 41.88970820884644)
1768305-20250316,3008749,310784,1,"DIAMONDROCK CHICAGO CONRAD TENANT, LLC",THE GWEN,520 N MICHIGAN AVE 5-17,CHICAGO,IL,60611,42,48,42-48,18,1477,Outdoor Patio,784,Sale of Liquor Outdoors on Private Property,1768305,RENEW,,01/15/2025,01/15/2025,N,03/16/2025,03/15/2027,01/15/2025,01/16/2025,AAI,,,41.891688517,-87.624307178,POINT (-87.62430717812579 41.89168851736832)
1299705-20250316,3008304,220602,1,"SLA DUE, INC.",PIZZERIA DUE,619 N WABASH AVE 1,CHICAGO,IL,60611,42,22,42-22,18,1477,Outdoor Patio,784,Sale of Liquor Outdoors on Private Property,1299705,RENEW,,01/15/2025,01/28/2025,N,03/16/2025,03/15/2027,01/28/2025,02/03/2025,AAI,,,41.893184989,-87.62661003,POINT (-87.62661002969385 41.8931849885056)
2698333-20250316,3007384,4180,2,"STREETER'S TAVERN, INC.",STREETERS TAVERN,48-50 E CHICAGO AVE,CHICAGO,IL,60611,42,19,42-19,18,1470,Tavern,829,Tavern - Consumption of Liquor on Premises,2698333,RENEW,,01/15/2025,01/15/2025,N,03/16/2025,03/15/2027,01/15/2025,01/16/2025,AAI,,,41.89681265,-87.626363375,POINT (-87.62636337526784 41.89681264961122)
16825-20250316,3007422,6942,1,"DAO INTERNATIONAL, INC.",DAO THAI RESTRAUNT,230 E OHIO ST  1ST,CHICAGO,IL,60611,2,41,2-41,18,1477,Outdoor Patio,784,Sale of Liquor Outdoors on Private Property,16825,RENEW,,01/15/2025,01/27/2025,N,03/16/2025,03/15/2027,01/27/2025,01/28/2025,AAI,,,41.892689628,-87.621438365,POINT (-87.62143836482372 41.8926896277279)
10168-20250316,3008134,85527,1,THE ARTS CLUB OF CHICAGO,THE ARTS CLUB OF CHICAGO,201 E ONTARIO ST  1ST &,CHICAGO,IL,60611,2,41,2-41,18,1477,Outdoor Patio,784,Sale of Liquor Outdoors on Private Property,10168,RENEW,,01/15/2025,01/15/2025,N,03/16/2025,03/15/2027,01/15/2025,01/16/2025,AAI,,,41.893253565,-87.622594287,POINT (-87.6225942872089 41.893253564575346)
1619501-20250316,3008563,279209,1,"RUSH ONTARIO, LLC",AC MARRIOTT CHICAGO DOWNTOWN,630 N RUSH ST,CHICAGO,IL,60611,42,22,42-22,18,1477,Outdoor Patio,784,Sale of Liquor Outdoors on Private Property,1619501,RENEW,,01/15/2025,01/28/2025,N,03/16/2025,03/15/2027,01/28/2025,01/29/2025,AAI,,,41.893352438,-87.625566988,POINT (-87.62556698832533 41.89335243769719)
1817415-20250316,3008310,220608,1,"SLA SU CASA, INC.",SU CASA,49 E ONTARIO ST,CHICAGO,IL,60611,42,22,42-22,18,1477,Outdoor Patio,784,Sale of Liquor Outdoors on Private Property,1817415,RENEW,,01/15/2025,01/22/2025,N,03/16/2025,03/15/2027,01/22/2025,01/23/2025,AAI,,,41.89319256,-87.626172814,POINT (-87.62617281400281 41.89319255965124)
1331159-20250316,3008303,220602,1,"SLA DUE, INC.",PIZZERIA DUE,619 N WABASH AVE 1,CHICAGO,IL,60611,42,22,42-22,18,1477,Outdoor Patio,784,Sale of Liquor Outdoors on Private Property,1331159,RENEW,,01/15/2025,01/28/2025,N,03/16/2025,03/15/2027,01/28/2025,02/03/2025,AAI,,,41.893184989,-87.62661003,POINT (-87.62661002969385 41.8931849885056)
1302350-20250316,3008317,242832,1,"MAMA G, LLC",PROOF,1045 N RUSH ST,CHICAGO,IL,60611,42,1,42-1,18,1470,Tavern,829,Tavern - Consumption of Liquor on Premises,1302350,RENEW,,01/15/2025,02/11/2025,N,03/16/2025,03/15/2027,02/11/2025,02/13/2025,AAI,,,41.902163279,-87.628035347,POINT (-87.62803534651201 41.902163278696534)
2886951-20250316,3009638,431551,1,TEATRO TARIAKURI,TEATRO TARIAKURI THEATRE,3117 W 63RD ST 1ST,CHICAGO,IL,60629,15,14,15-14,8,1050,Public Place of Amusement,697 | 698,Live Theatrical and Other Live Cultural Performances (Performing Arts Venue) | Live Theatrical and Other Live Cultural Performances Where Organization is Operating as an Incidental Use In a Building Primarily Used In The Conduct of Activities of a Not-For-Profit Organization,2886951,RENEW,,01/15/2025,01/15/2025,N,03/16/2025,01/15/2027,02/11/2025,02/13/2025,AAI,,3,41.778885845,-87.701489169,POINT (-87.70148916875044 41.778885844975974)
847-20250316,3007314,159,1,"ANDY'S 11 EAST LOUNGE, LTD.",ANDYS 11 EAST LOUNGE,11 E HUBBARD ST 1ST,CHICAGO,IL,60611,42,55,42-55,18,1470,Tavern,829,Tavern - Consumption of Liquor on Premises,847,RENEW,,01/15/2025,01/16/2025,N,03/16/2025,03/15/2027,01/16/2025,01/17/2025,AAI,,,41.889963868,-87.627506922,POINT (-87.62750692235896 41.889963868268154)
2534973-20250316,3009055,373421,2,"HOMESLYCE IS WHERE THE HEART IS, LLC",HOMESLYCE WHEEL HOUSE,934-938 W WEBSTER AVE 1,CHICAGO,IL,60614,43,21,43-21,18,1477,Outdoor Patio,784,Sale of Liquor Outdoors on Private Property,2534973,RENEW,,01/15/2025,02/05/2025,N,03/16/2025,03/15/2027,02/05/2025,02/06/2025,AAI,,,41.921866539,-87.652423053,POINT (-87.65242305270903 41.921866539026375)
2501100-20250316,3009409,411798,1,"ANAOLI, LLC",MI TOCAYA,2800 W LOGAN BLVD,CHICAGO,IL,60647,1,8,1-8,14,1477,Outdoor Patio,784,Sale of Liquor Outdoors on Private Property,2501100,RENEW,,01/15/2025,02/08/2025,N,03/16/2025,03/15/2027,02/08/2025,02/10/2025,AAI,,,41.928574981,-87.697578354,POINT (-87.6975783536939 41.928574981125955)
2492137-20250316,3009363,404550,1,"JALARAM FOODS AND LIQUOR, INC.",BRISTOL DELI & LIQUOR,3084-3086 N MILWAUKEE AVE,CHICAGO,IL,60618,31,25,31-25,25,1470,Tavern,829,Tavern - Consumption of Liquor on Premises,2492137,RENEW,,01/15/2025,02/06/2025,N,03/16/2025,03/15/2027,02/06/2025,02/07/2025,AAI,,,41.937109113,-87.72082349,POINT (-87.72082349029948 41.937109112504686)
1682466-20250316,3008285,217437,2,MCCORMICK & SCHMICK RESTAURANT CORP.,MCCORMICK & SCHMICK'S SEAFOOD RESTAURANT,1 E WACKER DR,CHICAGO,IL,60601,42,9,42-9,1,1477,Outdoor Patio,784,Sale of Liquor Outdoors on Private Property,1682466,RENEW,,01/15/2025,01/17/2025,N,03/16/2025,03/15/2027,01/17/2025,01/22/2025,AAI,,1,41.886707555,-87.627883478,POINT (-87.6278834784023 41.886707555069805)
1694888-20250216,3003797,302784,1,CARY'S LOUNGE INCORPORATED,CARY'S LOUNGE,2251 W DEVON AVE,CHICAGO,IL,60659,50,32,50-32,24,1470,Tavern,829,Tavern - Consumption of Liquor on Premises,1694888,RENEW,,12/15/2024,02/06/2025,N,02/16/2025,02/15/2027,02/06/2025,02/07/2025,AAI,,43,41.997670704,-87.686991262,POINT (-87.68699126169352 41.99767070403499)
2808982-20250216,3004198,357771,5,"BOTTLENECK 100, LLC",SOUTH BRANCH,100 S WACKER DR  100 & 140,CHICAGO,IL,60606,42,9,42-9,1,1477,Outdoor Patio,784,Sale of Liquor Outdoors on Private Property,2808982,RENEW,,12/15/2024,01/03/2025,N,02/16/2025,02/15/2027,01/03/2025,01/06/2025,AAI,,,41.880557025,-87.637131776,POINT (-87.63713177610846 41.8805570251432)
47217-20250216,3003255,36471,1,"ALLEN GRAHAM VAN HULLE ENTERPRISES, INC.",THE LUCKY HORSESHOE LOUNGE,3169 N HALSTED ST 1ST,CHICAGO,IL,60657,44,21,44-21,19,1470,Tavern,829,Tavern - Consumption of Liquor on Premises,47217,RENEW,,12/15/2024,01/06/2025,N,02/16/2025,02/15/2027,01/06/2025,01/07/2025,AAI,,8,41.939876223,-87.649116442,POINT (-87.64911644222865 41.9398762229962)
2013-20250216,3002879,395,1,ROBERT R FEDRO JR,LANGE'S LIQUORS,3500 N SOUTHPORT AVE,CHICAGO,IL,60657,44,43,44-43,19,1470,Tavern,829,Tavern - Consumption of Liquor on Premises,2013,RENEW,,12/15/2024,01/27/2025,N,02/16/2025,02/15/2027,01/27/2025,01/28/2025,AAI,,27,41.945286155,-87.664116229,POINT (-87.66411622886991 41.945286155082755)
30600-20250216,3003031,14166,1,"3478 NORTH CLARK STREET, INC.",ROADHOUSE 66 GAS N' GRILL,3478 N CLARK ST,CHICAGO,IL,60657,44,38,44-38,19,1477,Outdoor Patio,784,Sale of Liquor Outdoors on Private Property,30600,RENEW,,12/15/2024,01/27/2025,N,02/16/2025,02/15/2027,01/27/2025,01/28/2025,AAI,,17,41.945490352,-87.655309023,POINT (-87.65530902311264 41.945490352324526)
2354687-20250216,3003452,86553,10,"SIDE BY SIDE, INC.",SIDETRACK,3345-3355 N HALSTED ST 1ST & 2ND,CHICAGO,IL,60657,44,33,44-33,19,1470,Tavern,829,Tavern - Consumption of Liquor on Premises,2354687,RENEW,,12/15/2024,12/15/2024,N,02/16/2025,02/15/2027,12/15/2024,12/16/2024,AAI,,8,41.943132595,-87.649217665,POINT (-87.64921766458053 41.94313259451181)
2031776-20250216,3003036,14298,1,"ROSCOE'S TAVERN, LTD.",ROSCOES TAVERN,3354-3356 N HALSTED ST,CHICAGO,IL,60657,44,42,44-42,19,1050,Public Place of Amusement,743,Provides Onsite Amusement or Entertainment,2031776,RENEW,,12/15/2024,12/15/2024,N,02/16/2025,02/15/2027,01/28/2025,01/29/2025,AAI,,17,41.943442912,-87.649517054,POINT (-87.64951705356305 41.94344291172199)
28877-20250216,3003357,85993,2,MIA FRANCESCA CORPORATION,MIA FRANCESCA,3311 N CLARK ST 1-2,CHICAGO,IL,60657,44,20,44-20,19,1477,Outdoor Patio,784,Sale of Liquor Outdoors on Private Property,28877,RENEW,,12/15/2024,01/29/2025,N,02/16/2025,02/15/2027,01/29/2025,01/30/2025,AAI,,17,41.942110267,-87.652249551,POINT (-87.65224955089677 41.94211026659002)
2124-20250216,3002881,422,1,"LA CREPERIE, INC.","LA CREPERIE, INC.",2845 N CLARK ST,CHICAGO,IL,60657,44,45,44-45,19,1477,Outdoor Patio,784,Sale of Liquor Outdoors on Private Property,2124,RENEW,,12/15/2024,01/29/2025,N,02/16/2025,02/15/2027,01/29/2025,01/30/2025,AAI,,8,41.933987493,-87.645673858,POINT (-87.64567385828903 41.933987492510155)
68809-20250216,3003120,21063,2,"2100 WEST IRVING PARK ROAD, INC.",O'DONOVAN'S,2100 W IRVING PARK RD 1ST,CHICAGO,IL,60618,47,35,47-35,19,1477,Outdoor Patio,784,Sale of Liquor Outdoors on Private Property,68809,RENEW,,12/15/2024,01/29/2025,N,02/16/2025,02/15/2027,01/29/2025,01/30/2025,AAI,,38,41.954229641,-87.681246806,POINT (-87.68124680611072 41.95422964091824)
46920-20250216,3003252,36379,1,"NATIONAL PASTIME, INC.",UPPER DECK,3544 N CLARK ST 2ND,CHICAGO,IL,60657,44,38,44-38,19,1050,Public Place of Amusement,743,Provides Onsite Amusement or Entertainment,46920,RENEW,,12/15/2024,12/17/2024,N,02/16/2025,02/15/2027,01/29/2025,01/30/2025,AAI,,17,41.946683653,-87.656272738,POINT (-87.65627273805016 41.94668365286616)
2446433-20250216,3003586,264630,1,"TD2J, INC.",MERKLE'S BAR & GRILL,3516 N CLARK ST,CHICAGO,IL,60657,44,38,44-38,19,1050,Public Place of Amusement,746,"Public Place of Amusement, Provides Entertainment, Room Rentals and Charges a Fee",2446433,RENEW,,12/15/2024,01/09/2025,N,02/16/2025,02/15/2027,01/31/2025,01/31/2025,AAI,,17,41.945991903,-87.655713194,POINT (-87.65571319445823 41.94599190258738)
2797227-20250216,3005878,476465,1,"PMJ2445, LLC",La Victoria Barra + Cocina,2443-2447 N MILWAUKEE AVE 1ST,CHICAGO,IL,60647,1,19,1-19,14,1470,Tavern,829,Tavern - Consumption of Liquor on Premises,2797227,RENEW,,12/15/2024,01/28/2025,N,02/16/2025,02/15/2027,01/28/2025,01/31/2025,AAI,,,41.925703991,-87.701685641,POINT (-87.70168564131465 41.92570399137965)
2797229-20250216,3005877,476465,1,"PMJ2445, LLC",La Victoria Barra + Cocina,2443-2447 N MILWAUKEE AVE 1ST,CHICAGO,IL,60647,1,19,1-19,14,1477,Outdoor Patio,784,Sale of Liquor Outdoors on Private Property,2797229,RENEW,,12/15/2024,01/28/2025,N,02/16/2025,02/15/2027,01/28/2025,01/31/2025,AAI,,,41.925703991,-87.701685641,POINT (-87.70168564131465 41.92570399137965)
2536425-20250216,3003719,280877,1,3518-22 Clark Corporation,Moe's Cantina,3518-3522 N CLARK ST,CHICAGO,IL,60657,44,38,44-38,19,1477,Outdoor Patio,784,Sale of Liquor Outdoors on Private Property,2536425,RENEW,,12/15/2024,02/03/2025,N,02/16/2025,02/15/2027,02/03/2025,02/04/2025,AAI,,17,41.946041779,-87.655753473,POINT (-87.65575347288572 41.94604177875421)
1888526-20250216,3004019,327236,1,"LINCOLN TAP ROOM, INC.",LINCOLN TAP ROOM,3010 N LINCOLN AVE,CHICAGO,IL,60657,32,18,32-18,19,1470,Tavern,829,Tavern - Consumption of Liquor on Premises,1888526,RENEW,,12/15/2024,01/31/2025,N,02/16/2025,02/15/2027,01/31/2025,02/03/2025,AAI,,27,41.936328218,-87.66420173,POINT (-87.6642017296887 41.93632821811502)
1803396-20250216,3003717,280877,1,3518-22 Clark Corporation,Moe's Cantina,3518-3522 N CLARK ST,CHICAGO,IL,60657,44,38,44-38,19,1050,Public Place of Amusement,743,Provides Onsite Amusement or Entertainment,1803396,RENEW,,12/15/2024,02/03/2025,N,02/16/2025,02/15/2027,02/03/2025,02/04/2025,AAI,,17,41.946041779,-87.655753473,POINT (-87.65575347288572 41.94604177875421)
12803-20250216,3002949,6126,1,MONSIGNOR MURPHY'S INCORPORATED,MONSIGNOR MURPHY'S,3019 N BROADWAY  1,CHICAGO,IL,60657,44,5,44-5,19,1477,Outdoor Patio,784,Sale of Liquor Outdoors on Private Property,12803,RENEW,,12/15/2024,01/31/2025,N,02/16/2025,02/15/2027,01/31/2025,02/03/2025,AAI,,8,41.93708671,-87.644154318,POINT (-87.6441543182686 41.93708671022796)
1444569-20250216,3003601,268756,1,"S 2733, INC.",CASEY'S CORNER,2733 W DEVON AVE 1ST,CHICAGO,IL,60659,50,26,50-26,24,1470,Tavern,829,Tavern - Consumption of Liquor on Premises,1444569,RENEW,,12/15/2024,02/03/2025,N,02/16/2025,02/15/2027,02/03/2025,02/04/2025,AAI,,43,41.997469545,-87.69848682,POINT (-87.69848682019041 41.997469544827794)
12801-20250216,3002947,6126,1,MONSIGNOR MURPHY'S INCORPORATED,MONSIGNOR MURPHY'S,3019 N BROADWAY  1,CHICAGO,IL,60657,44,5,44-5,19,1470,Tavern,829,Tavern - Consumption of Liquor on Premises,12801,RENEW,,12/15/2024,01/31/2025,N,02/16/2025,02/15/2027,01/31/2025,02/03/2025,AAI,,8,41.93708671,-87.644154318,POINT (-87.6441543182686 41.93708671022796)
2808981-20250216,3004200,357771,5,"BOTTLENECK 100, LLC",SOUTH BRANCH,100 S WACKER DR  100 & 140,CHICAGO,IL,60606,42,9,42-9,1,1050,Public Place of Amusement,746,"Public Place of Amusement, Provides Entertainment, Room Rentals and Charges a Fee",2808981,RENEW,,12/15/2024,01/03/2025,N,02/16/2025,02/15/2027,01/31/2025,02/03/2025,AAI,,,41.880557025,-87.637131776,POINT (-87.63713177610846 41.8805570251432)
46170-20250216,3003245,36105,1,P & E CORP.,SMILIN' JIM'S SALOON,6306 N WESTERN AVE,CHICAGO,IL,60659,50,43,50-43,24,1470,Tavern,829,Tavern - Consumption of Liquor on Premises,46170,RENEW,,12/15/2024,02/04/2025,N,02/16/2025,02/15/2027,02/04/2025,02/05/2025,AAI,,43,41.996168965,-87.689979162,POINT (-87.68997916163592 41.99616896480926)
2189462-20250216,3004988,375962,1,CHSP TRS LAKESHORE LLC,W CHICAGO-LAKESHORE,644 N LAKE SHORE DR 1-32,CHICAGO,IL,60611,2,63,2-63,18,1477,Outdoor Patio,784,Sale of Liquor Outdoors on Private Property,2189462,RENEW,,12/15/2024,01/21/2025,N,02/16/2025,02/15/2027,01/21/2025,02/06/2025,AAI,,,41.893871348,-87.615274777,POINT (-87.61527477728374 41.89387134779289)
1964866-20250216,3003157,27315,1,"1658 CLUB, INCORPORATED",CODY'S PUBLIC HOUSE,1658 W BARRY AVE 1,CHICAGO,IL,60657,32,40,32-40,19,1477,Outdoor Patio,784,Sale of Liquor Outdoors on Private Property,1964866,RENEW,,12/15/2024,12/16/2024,N,02/16/2025,02/15/2027,12/16/2024,12/16/2024,AAI,,27,41.937951353,-87.670908757,POINT (-87.67090875737219 41.93795135333893)
31225-20250216,3003037,14298,1,"ROSCOE'S TAVERN, LTD.",ROSCOE'S TAVERN LTD,3354-3356 N HALSTED ST,CHICAGO,IL,60657,44,42,44-42,19,1470,Tavern,829,Tavern - Consumption of Liquor on Premises,31225,RENEW,,12/15/2024,12/15/2024,N,02/16/2025,02/15/2027,12/15/2024,12/16/2024,AAI,,17,41.943442912,-87.649517054,POINT (-87.64951705356305 41.94344291172199)
2284186-20250216,3003796,302784,1,CARY'S LOUNGE INCORPORATED,CARY'S LOUNGE,2251 W DEVON AVE,CHICAGO,IL,60659,50,32,50-32,24,1477,Outdoor Patio,784,Sale of Liquor Outdoors on Private Property,2284186,RENEW,,12/15/2024,02/06/2025,N,02/16/2025,02/15/2027,02/06/2025,02/07/2025,AAI,,43,41.997670704,-87.686991262,POINT (-87.68699126169352 41.99767070403499)
1990939-20250216,3002931,4271,2,"ETHIO CAFE', INC.",COUNTRY CLUB,3462 N CLARK ST 1ST AND 2ND,CHICAGO,IL,60657,44,38,44-38,19,1050,Public Place of Amusement,743,Provides Onsite Amusement or Entertainment,1990939,RENEW,,12/15/2024,12/17/2024,N,02/16/2025,02/15/2027,02/07/2025,02/10/2025,AAI,,17,41.945049681,-87.654953222,POINT (-87.65495322178364 41.945049680893675)
45576-20250216,3003239,35870,1,"TOKYO ENTERPRISES, LTD.",PARROTS BAR & GRILL,754-756 W WELLINGTON AVE 1ST,CHICAGO,IL,60657,44,6,44-6,19,1470,Tavern,829,Tavern - Consumption of Liquor on Premises,45576,RENEW,,12/15/2024,02/08/2025,N,02/16/2025,02/15/2027,02/08/2025,02/10/2025,AAI,,8,41.936500263,-87.648927506,POINT (-87.64892750557354 41.936500263308446)
1176-20250216,3002861,224,1,FRIAR TUCK INC.,FRIAR TUCK INC.,3010 N BROADWAY  1ST,CHICAGO,IL,60657,44,6,44-6,19,1470,Tavern,829,Tavern - Consumption of Liquor on Premises,1176,RENEW,,12/15/2024,02/10/2025,N,02/16/2025,02/15/2027,02/10/2025,02/10/2025,AAI,,8,41.936824133,-87.644439454,POINT (-87.64443945442758 41.93682413326325)
1197878-20250216,3003510,222589,1,"T33, INC.",THE GREEN LADY,3328 N LINCOLN AVE,CHICAGO,IL,60657,32,38,32-38,19,1470,Tavern,829,Tavern - Consumption of Liquor on Premises,1197878,RENEW,,12/15/2024,02/10/2025,N,02/16/2025,02/15/2027,02/10/2025,02/11/2025,AAI,,27,41.942385472,-87.670713838,POINT (-87.67071383788313 41.94238547241118)
1820783-20250216,3003115,20800,2,"MAMA LOUKAS, INC.",VINES ON CLARK,3550-3554 N CLARK ST 1,CHICAGO,IL,60657,44,38,44-38,19,1477,Outdoor Patio,784,Sale of Liquor Outdoors on Private Property,1820783,RENEW,,12/15/2024,02/10/2025,N,02/16/2025,02/15/2027,02/10/2025,02/11/2025,AAI,,17,41.946843708,-87.65640059,POINT (-87.65640059044576 41.94684370762542)
2529160-20250216,3003114,20800,2,"MAMA LOUKAS, INC.",VINES ON CLARK,3550-3554 N CLARK ST 1,CHICAGO,IL,60657,44,38,44-38,19,1050,Public Place of Amusement,746,"Public Place of Amusement, Provides Entertainment, Room Rentals and Charges a Fee",2529160,RENEW,,12/15/2024,02/10/2025,N,02/16/2025,02/15/2027,02/10/2025,02/11/2025,AAI,,17,41.946843708,-87.65640059,POINT (-87.65640059044576 41.94684370762542)
1577039-20250216,3003113,20800,2,"MAMA LOUKAS, INC.",VINES ON CLARK,3550-3554 N CLARK ST 1,CHICAGO,IL,60657,44,38,44-38,19,1477,Outdoor Patio,784,Sale of Liquor Outdoors on Private Property,1577039,RENEW,,12/15/2024,02/10/2025,N,02/16/2025,02/15/2027,02/10/2025,02/11/2025,AAI,,17,41.946843708,-87.65640059,POINT (-87.65640059044576 41.94684370762542)
31227-20250216,3003039,14298,1,"ROSCOE'S TAVERN, LTD.",ROSCOE'S TAVERN LTD,3354-3356 N HALSTED ST,CHICAGO,IL,60657,44,42,44-42,19,1477,Outdoor Patio,784,Sale of Liquor Outdoors on Private Property,31227,RENEW,,12/15/2024,12/15/2024,N,02/16/2025,02/15/2027,12/15/2024,12/16/2024,AAI,,17,41.943442912,-87.649517054,POINT (-87.64951705356305 41.94344291172199)
39846-20250216,3003223,34063,1,"GASTHAUS ZUM LOEWEN, INC.",THE REVELER,1954-1958 W ROSCOE ST 1ST,CHICAGO,IL,60657,32,9,32-9,19,1470,Tavern,829,Tavern - Consumption of Liquor on Premises,39846,RENEW,,12/15/2024,01/14/2025,N,02/16/2025,02/15/2027,01/14/2025,02/13/2025,AAI,,,41.943328037,-87.678184165,POINT (-87.67818416456056 41.943328037206484)
36451-20250216,3002959,6642,1,BUCKS SALOON INC,REPLAY,3439 N HALSTED ST,CHICAGO,IL,60657,44,33,44-33,19,1470,Tavern,829,Tavern - Consumption of Liquor on Premises,36451,RENEW,,12/15/2024,01/15/2025,N,02/16/2025,02/15/2027,01/15/2025,02/13/2025,AAI,,18,41.944817126,-87.649265431,POINT (-87.64926543059727 41.944817125602)
2354689-20250216,3003451,86553,10,"SIDE BY SIDE, INC.",SIDETRACK,3345-3355 N HALSTED ST 1ST & 2ND,CHICAGO,IL,60657,44,33,44-33,19,1477,Outdoor Patio,784,Sale of Liquor Outdoors on Private Property,2354689,RENEW,,12/15/2024,12/15/2024,N,02/16/2025,02/15/2027,12/15/2024,12/16/2024,AAI,,8,41.943132595,-87.649217665,POINT (-87.64921766458053 41.94313259451181)
46242-20250216,3003079,16640,1,KARAOKE RESTAURANT & BAR INC.,U STAR KARAOKE,6248 N CALIFORNIA AVE 1,CHICAGO,IL,60659,50,26,50-26,24,1050,Public Place of Amusement,743,Provides Onsite Amusement or Entertainment,46242,RENEW,,12/15/2024,02/11/2025,N,02/16/2025,02/15/2027,02/11/2025,02/13/2025,AAI,,,41.995399589,-87.699711339,POINT (-87.6997113393183 41.99539958897028)
36452-20250216,3002960,6642,1,BUCKS SALOON INC,REPLAY,3439 N HALSTED ST,CHICAGO,IL,60657,44,33,44-33,19,1477,Outdoor Patio,784,Sale of Liquor Outdoors on Private Property,36452,RENEW,,12/15/2024,01/15/2025,N,02/16/2025,02/15/2027,01/15/2025,02/13/2025,AAI,,18,41.944817126,-87.649265431,POINT (-87.64926543059727 41.944817125602)
2653014-20250216,3005467,425288,1,MIDDLE BROW BREWPUB LLC,MIDDLE BROW,2002 N MOZART ST 1,CHICAGO,IL,60647,1,23,1-23,14,1477,Outdoor Patio,784,Sale of Liquor Outdoors on Private Property,2653014,RENEW,,12/15/2024,12/18/2024,N,02/16/2025,02/15/2027,12/18/2024,02/13/2025,AAI,,,41.91759015,-87.698749237,POINT (-87.69874923730616 41.917590149798)
25673-20250216,3003000,10510,1,"WILL'S NORTHWOODS INN, INC.",WILL'S NORTHWOODS INN,3032-3034 N RACINE AVE,CHICAGO,IL,60657,32,23,32-23,19,1470,Tavern,829,Tavern - Consumption of Liquor on Premises,25673,RENEW,,12/15/2024,02/13/2025,N,02/16/2025,02/15/2027,02/13/2025,02/14/2025,AAI,,27,41.937206672,-87.659021553,POINT (-87.65902155261739 41.93720667186293)
1816975-20250216,3003001,10510,1,"WILL'S NORTHWOODS INN, INC.",WILL'S NORTHWOODS INN,3032-3034 N RACINE AVE,CHICAGO,IL,60657,32,23,32-23,19,1477,Outdoor Patio,784,Sale of Liquor Outdoors on Private Property,1816975,RENEW,,12/15/2024,02/13/2025,N,02/16/2025,02/15/2027,02/13/2025,02/14/2025,AAI,,27,41.937206672,-87.659021553,POINT (-87.65902155261739 41.93720667186293)
39232-20250216,3002906,3762,1,BERLIN CORPORATION,BERLIN,954 W BELMONT AVE,CHICAGO,IL,60657,44,20,44-20,19,1470,Tavern,829,Tavern - Consumption of Liquor on Premises,39232,RENEW,,12/15/2024,02/14/2025,N,02/16/2025,02/15/2027,02/14/2025,02/14/2025,AAI,,17,41.940027954,-87.65357613,POINT (-87.65357612984606 41.94002795419316)
2551761-20250216,3003232,34912,1,"NISEI LOUNGE, LTD.",NISEI LOUNGE,3439 N SHEFFIELD AVE 1ST #,CHICAGO,IL,60657,44,36,44-36,19,1477,Outdoor Patio,784,Sale of Liquor Outdoors on Private Property,2551761,RENEW,,12/15/2024,02/13/2025,N,02/16/2025,02/15/2027,02/13/2025,02/14/2025,AAI,,17,41.944708682,-87.654105911,POINT (-87.65410591123208 41.94470868163818)
2256197-20250216,3002958,6642,1,BUCKS SALOON INC,REPLAY,3439 N HALSTED ST,CHICAGO,IL,60657,44,33,44-33,19,1050,Public Place of Amusement,744,Provides Onsite Entertainment or Rentals,2256197,RENEW,,12/15/2024,01/15/2025,N,02/16/2025,02/15/2027,02/14/2025,02/14/2025,AAI,,18,41.944817126,-87.649265431,POINT (-87.64926543059727 41.944817125602)
2084791-20250216,3003567,261056,1,2610 RESTAURANT INC.,IMPERIA LOUNGE,2610-2612 W PETERSON AVE,CHICAGO,IL,60659,40,10,40-10,24,1050,Public Place of Amusement,743,Provides Onsite Amusement or Entertainment,2084791,RENEW,,12/15/2024,02/07/2025,N,02/16/2025,02/15/2027,02/14/2025,02/14/2025,AAI,,,41.990577712,-87.695051595,POINT (-87.69505159486957 41.99057771185899)
42856-20250216,3003233,34912,1,"NISEI LOUNGE, LTD.",NISEI LOUNGE,3439 N SHEFFIELD AVE 1ST #,CHICAGO,IL,60657,44,36,44-36,19,1470,Tavern,829,Tavern - Consumption of Liquor on Premises,42856,RENEW,,12/15/2024,02/13/2025,N,02/16/2025,02/15/2027,02/13/2025,02/14/2025,AAI,,17,41.944708682,-87.654105911,POINT (-87.65410591123208 41.94470868163818)
1351505-20250216,3003544,254997,1,"DOUBLE F F & B, INC.",KUBO,1232 W BELMONT AVE 1,CHICAGO,IL,60657,44,13,44-13,19,1477,Outdoor Patio,784,Sale of Liquor Outdoors on Private Property,1351505,RENEW,,12/15/2024,02/13/2025,N,02/16/2025,02/15/2027,02/13/2025,02/14/2025,AAI,,27,41.939925873,-87.660251881,POINT (-87.66025188109599 41.93992587298262)
2354690-20250216,3003450,86553,10,"SIDE BY SIDE, INC.",SIDETRACK,3345-3355 N HALSTED ST 1ST & 2ND,CHICAGO,IL,60657,44,33,44-33,19,1477,Outdoor Patio,784,Sale of Liquor Outdoors on Private Property,2354690,RENEW,,12/15/2024,12/15/2024,N,02/16/2025,02/15/2027,12/15/2024,12/16/2024,AAI,,8,41.943132595,-87.649217665,POINT (-87.64921766458053 41.94313259451181)
13547-20250216,3003156,27315,1,"1658 CLUB, INCORPORATED",CODY'S PUBLIC HOUSE,1658 W BARRY AVE 1,CHICAGO,IL,60657,32,40,32-40,19,1470,Tavern,829,Tavern - Consumption of Liquor on Premises,13547,RENEW,,12/15/2024,12/16/2024,N,02/16/2025,02/15/2027,12/16/2024,12/16/2024,AAI,,27,41.937951353,-87.670908757,POINT (-87.67090875737219 41.93795135333893)
2152860-20250216,3004967,371950,1,"3143 WEST LOGAN BLVD, LLC",BILLY SUNDAY,3143 W LOGAN BLVD 1,CHICAGO,IL,60647,35,30,35-30,14,1470,Tavern,829,Tavern - Consumption of Liquor on Premises,2152860,RENEW,,12/15/2024,12/15/2024,N,02/16/2025,02/15/2027,12/15/2024,12/16/2024,AAI,,,41.927863043,-87.706605015,POINT (-87.70660501506578 41.92786304343622)
30037-20250216,3003187,31480,1,"SHEFFIELD'S BEER & WINE GARDEN, INC.",SHEFFIELD BEER & WINE GARDEN,3256-3258 N SHEFFIELD AVE 1,CHICAGO,IL,60657,44,39,44-39,19,1477,Outdoor Patio,784,Sale of Liquor Outdoors on Private Property,30037,RENEW,,12/15/2024,12/16/2024,N,02/16/2025,02/15/2027,12/16/2024,12/17/2024,AAI,,17,41.94159066,-87.654304973,POINT (-87.65430497323777 41.94159066006034)
2717967-20250216,3003939,310784,1,"DIAMONDROCK CHICAGO CONRAD TENANT, LLC",THE GWEN,520 N MICHIGAN AVE 5-17,CHICAGO,IL,60611,42,48,42-48,18,1477,Outdoor Patio,784,Sale of Liquor Outdoors on Private Property,2717967,RENEW,,12/15/2024,12/16/2024,N,02/16/2025,03/15/2027,12/16/2024,12/17/2024,AAI,,,41.891688517,-87.624307178,POINT (-87.62430717812579 41.89168851736832)
2732890-20250216,3004268,359883,2,"UBBAR, LLC",THE BATON SHOW LOUNGE,4703-4713 N BROADWAY  LL+1,CHICAGO,IL,60640,46,6,46-6,19,1050,Public Place of Amusement,746,"Public Place of Amusement, Provides Entertainment, Room Rentals and Charges a Fee",2732890,RENEW,,12/15/2024,01/21/2025,N,02/16/2025,02/15/2027,01/21/2025,01/22/2025,AAI,,,,,
2802940-20250216,3005501,432807,2,"AHTRST CONCESSIONS, LLC",HILTON GARDEN INN / CANOPY,226 W JACKSON BLVD LL-15,CHICAGO,IL,60606,42,9,42-9,1,1477,Outdoor Patio,784,Sale of Liquor Outdoors on Private Property,2802940,RENEW,,12/15/2024,01/16/2025,N,02/16/2025,02/15/2027,01/16/2025,01/17/2025,AAI,,,41.878220322,-87.634523879,POINT (-87.6345238791842 41.87822032159353)
30036-20250216,3003189,31480,1,"SHEFFIELD'S BEER & WINE GARDEN, INC.",SHEFFIELD BEER & WINE GARDEN,3256-3258 N SHEFFIELD AVE 1,CHICAGO,IL,60657,44,39,44-39,19,1470,Tavern,829,Tavern - Consumption of Liquor on Premises,30036,RENEW,,12/15/2024,12/16/2024,N,02/16/2025,02/15/2027,12/16/2024,12/17/2024,AAI,,17,41.94159066,-87.654304973,POINT (-87.65430497323777 41.94159066006034)
2827124-20250216,3003149,26486,2,"J. & D. ENTERPRISES OF ILLINOIS, INC.",Shakers on Clark,3162 N CLARK ST 1,CHICAGO,IL,60657,44,20,44-20,19,1470,Tavern,829,Tavern - Consumption of Liquor on Premises,2827124,RENEW,,12/15/2024,01/16/2025,N,02/16/2025,02/15/2027,01/16/2025,01/17/2025,AAI,,17,41.939301096,-87.650321202,POINT (-87.65032120244555 41.9393010960117)
35524-20250216,3003060,15078,1,"NORTH SHEFFIELD, INC.",VAUGHAN'S PUB,2917 N SHEFFIELD AVE 1,CHICAGO,IL,60657,44,29,44-29,19,1470,Tavern,829,Tavern - Consumption of Liquor on Premises,35524,RENEW,,12/15/2024,01/16/2025,N,02/16/2025,02/15/2027,01/16/2025,01/17/2025,AAI,,17,41.935002358,-87.653792375,POINT (-87.65379237472023 41.93500235831336)
11032-20250216,3002939,5152,1,"NINE-FIFTY, LTD.",KINCADE'S,950-952 W ARMITAGE AVE 1ST #,CHICAGO,IL,60614,43,11,43-11,18,1470,Tavern,829,Tavern - Consumption of Liquor on Premises,11032,RENEW,,12/15/2024,12/17/2024,N,02/16/2025,02/15/2027,12/17/2024,12/18/2024,AAI,,,41.918221121,-87.652973053,POINT (-87.65297305297553 41.918221120708644)
1044229-20250216,3002944,5152,2,"NINE-FIFTY, LTD.",KINCADE'S,952 W ARMITAGE AVE LOWER #,CHICAGO,IL,60614,43,11,43-11,18,1477,Outdoor Patio,784,Sale of Liquor Outdoors on Private Property,1044229,RENEW,,12/15/2024,12/17/2024,N,02/16/2025,02/15/2027,12/17/2024,12/18/2024,AAI,,,41.918219763,-87.653057449,POINT (-87.65305744895191 41.91821976334081)
25947-20250216,3003004,10678,1,D C HENNING INC,BLACK SHEEP,2535-2537 W PETERSON AVE,CHICAGO,IL,60659,40,15,40-15,20,1470,Tavern,829,Tavern - Consumption of Liquor on Premises,25947,RENEW,,12/15/2024,12/17/2024,N,02/16/2025,02/15/2027,12/17/2024,12/18/2024,AAI,,,41.990365689,-87.6935329,POINT (-87.69353289993734 41.9903656885798)
1991257-20250216,3003373,86298,11,"WHOLE FOODS MARKET GROUP, INC.",WHOLE FOODS MARKET,1550 N KINGSBURY ST,CHICAGO,IL,60642,27,46,27-46,18,1477,Outdoor Patio,784,Sale of Liquor Outdoors on Private Property,1991257,RENEW,,12/15/2024,12/18/2024,N,02/16/2025,02/15/2027,12/18/2024,12/20/2024,AAI,,,41.909398788,-87.653050698,POINT (-87.65305069789407 41.90939878780941)
2099331-20250216,3003023,13838,8,"CHRISTOPHER ST., LTD.",HYDRATE & ELIXIR,3452-3458 N HALSTED ST,CHICAGO,IL,60657,44,26,44-26,19,1470,Tavern,829,Tavern - Consumption of Liquor on Premises,2099331,RENEW,,12/15/2024,01/15/2025,N,02/16/2025,02/15/2027,01/15/2025,01/16/2025,AAI,,18,41.945219172,-87.649568641,POINT (-87.6495686413456 41.94521917152393)
1224704-20250216,3003010,11600,1,"BLUE IRIS CAFE, INC.",TRADER TODD'S RESTAURANT & BAR,3216 N SHEFFIELD AVE 1,CHICAGO,IL,60657,44,39,44-39,19,1477,Outdoor Patio,784,Sale of Liquor Outdoors on Private Property,1224704,RENEW,,12/15/2024,01/15/2025,N,02/16/2025,02/15/2027,01/15/2025,01/16/2025,AAI,,17,41.940455448,-87.654270853,POINT (-87.65427085300712 41.94045544818159)
1986127-20250216,3003371,86298,11,"WHOLE FOODS MARKET GROUP, INC.",WHOLE FOODS MARKET,1550 N KINGSBURY ST,CHICAGO,IL,60642,27,46,27-46,18,1477,Outdoor Patio,784,Sale of Liquor Outdoors on Private Property,1986127,RENEW,,12/15/2024,12/18/2024,N,02/16/2025,02/15/2027,12/18/2024,12/20/2024,AAI,,,41.909398788,-87.653050698,POINT (-87.65305069789407 41.90939878780941)
1991258-20250216,3003372,86298,11,"WHOLE FOODS MARKET GROUP, INC.",WHOLE FOODS MARKET,1550 N KINGSBURY ST,CHICAGO,IL,60642,27,46,27-46,18,1477,Outdoor Patio,784,Sale of Liquor Outdoors on Private Property,1991258,RENEW,,12/15/2024,12/18/2024,N,02/16/2025,02/15/2027,12/18/2024,12/20/2024,AAI,,,41.909398788,-87.653050698,POINT (-87.65305069789407 41.90939878780941)
35759-20250216,3003202,32932,1,2816 1/2 HALSTED CORP.,HARRIGAN'S,2816 N HALSTED ST 1ST,CHICAGO,IL,60657,44,29,44-29,19,1470,Tavern,829,Tavern - Consumption of Liquor on Premises,35759,RENEW,,12/15/2024,01/15/2025,N,02/16/2025,02/15/2027,01/15/2025,01/16/2025,AAI,,8,41.933262074,-87.64917834,POINT (-87.64917834017973 41.93326207377274)
51645-20250216,3003088,17500,1,"ENTROPY, INC.",FOUR MOON TAVERN,1847 W ROSCOE ST 1ST,CHICAGO,IL,60657,32,9,32-9,19,1470,Tavern,829,Tavern - Consumption of Liquor on Premises,51645,RENEW,,12/15/2024,01/14/2025,N,02/16/2025,02/15/2027,01/14/2025,01/15/2025,AAI,,,41.943140963,-87.675707395,POINT (-87.67570739466916 41.94314096316059)
1580-20250216,3002872,302,1,"1000 LIQUOR'S, INC.",1000 LIQUORS / BIG CITY TAP,1000-1012 W BELMONT AVE 1ST,CHICAGO,IL,60657,44,39,44-39,19,1470,Tavern,829,Tavern - Consumption of Liquor on Premises,1580,RENEW,,12/15/2024,12/30/2024,N,02/16/2025,02/15/2027,12/30/2024,12/31/2024,AAI,,17,41.94002036,-87.654172106,POINT (-87.65417210636889 41.940020360226804)
2762589-20250216,3005652,464993,2,"LOGAN HOSPITALITY RESTAURANT, LLC",ANDROS TAVERNA,2480 - 2542 N MILWAUKEE AVE,CHICAGO,IL,60647,35,14,35-14,14,1477,Outdoor Patio,784,Sale of Liquor Outdoors on Private Property,2762589,RENEW,,12/15/2024,01/13/2025,N,02/16/2025,02/15/2027,01/13/2025,01/14/2025,AAI,,,41.926348626,-87.70319622,POINT (-87.70319621979895 41.92634862637377)
25700-20250216,3003176,30353,1,"3420 BROADWAY, INC.",JACQUELINE'S,3420 N BROADWAY  1,CHICAGO,IL,60657,44,33,44-33,19,1470,Tavern,829,Tavern - Consumption of Liquor on Premises,25700,RENEW,,12/15/2024,01/13/2025,N,02/16/2025,02/15/2027,01/13/2025,01/14/2025,AAI,,8,41.943728677,-87.645224733,POINT (-87.64522473280383 41.94372867692048)
10441-20250216,3003147,26414,1,THE TOY TAP INC,JOE'S ON BROADWAY,3563 N BROADWAY  1ST,CHICAGO,IL,60657,46,43,46-43,19,1470,Tavern,829,Tavern - Consumption of Liquor on Premises,10441,RENEW,,12/15/2024,12/27/2024,N,02/16/2025,02/15/2027,12/27/2024,12/30/2024,AAI,,8,41.947256034,-87.647057507,POINT (-87.64705750744655 41.94725603414021)
38045-20250216,3003218,33576,1,"O SPOT, INC.",SCARLET BAR,3320 N HALSTED ST 1,CHICAGO,IL,60657,44,42,44-42,19,1470,Tavern,829,Tavern - Consumption of Liquor on Premises,38045,RENEW,,12/15/2024,01/02/2025,N,02/16/2025,02/15/2027,01/02/2025,01/03/2025,AAI,,17,41.94247093,-87.649496781,POINT (-87.64949678051296 41.942470929736956)
2808983-20250216,3004199,357771,5,"BOTTLENECK 100, LLC",SOUTH BRANCH,100 S WACKER DR  100 & 140,CHICAGO,IL,60606,42,9,42-9,1,1477,Outdoor Patio,784,Sale of Liquor Outdoors on Private Property,2808983,RENEW,,12/15/2024,01/03/2025,N,02/16/2025,02/15/2027,01/03/2025,01/06/2025,AAI,,,41.880557025,-87.637131776,POINT (-87.63713177610846 41.8805570251432)
2977606-20250211,2977606,508566,1,THE ARBORY LLC,THE ARBORY,2219 W GRAND AVE FIRST 1M,CHICAGO,IL,60612,27,28,27-28,12,1050,Public Place of Amusement,746,"Public Place of Amusement, Provides Entertainment, Room Rentals and Charges a Fee",2977606,ISSUE,07/02/2024,07/02/2024,07/02/2024,N,02/11/2025,02/15/2027,02/11/2025,02/11/2025,AAI,,,41.89061909,-87.6826056,POINT (-87.68260560041654 41.89061908968957)
3006458-20250207,3006458,398004,2,"THE GODDESS STATE STREET, INC.",The GODDESS GOLDCOAST,845-847 N STATE ST 1,CHICAGO,IL,60610,42,43,42-43,18,1477,Outdoor Patio,784,Sale of Liquor Outdoors on Private Property,3006458,ISSUE,12/17/2024,12/17/2024,12/17/2024,N,02/07/2025,02/15/2027,02/07/2025,02/07/2025,AAI,,,41.897986585,-87.628088398,POINT (-87.62808839759518 41.8979865852922)
2988848-20250121,2988848,11474,1,CHR CORPORATION,THE FRONTIER,1072 N MILWAUKEE AVE,CHICAGO,IL,60642,1,56,1-56,12,1050,Public Place of Amusement,746,"Public Place of Amusement, Provides Entertainment, Room Rentals and Charges a Fee",2988848,ISSUE,09/10/2024,09/10/2024,09/10/2024,N,01/21/2025,02/15/2027,01/21/2025,01/21/2025,AAI,,29,41.901283643,-87.663483625,POINT (-87.66348362488465 41.90128364339324)
1818338-20250116,3000331,316523,1,"LAWLOR'S ON 111TH STREET, INC.",O'CONNELL'S CORNER,3636 W 111TH ST 1,CHICAGO,IL,60655,19,4,19-4,22,1477,Outdoor Patio,784,Sale of Liquor Outdoors on Private Property,1818338,RENEW,,11/15/2024,01/11/2025,N,01/16/2025,01/15/2027,01/11/2025,01/13/2025,AAI,,,41.691500334,-87.712075163,POINT (-87.71207516284547 41.69150033427282)
2134412-20250116,3000570,368868,1,T.M.D. CORPORATION OF IL.,JUKE JOYNT,515 E 47TH ST,CHICAGO,IL,60653,3,30,3-30,2,1470,Tavern,829,Tavern - Consumption of Liquor on Premises,2134412,RENEW,,11/15/2024,12/02/2024,N,01/16/2025,01/15/2027,12/02/2024,12/03/2024,AAI,,56,41.80932375,-87.613259591,POINT (-87.61325959055534 41.80932375021602)
2120944-20250116,3000566,366847,1,THE ITALIAN JOB LLC,SIENA TAVERN,51 W KINZIE ST,CHICAGO,IL,60654,42,55,42-55,18,1050,Public Place of Amusement,743,Provides Onsite Amusement or Entertainment,2120944,RENEW,,11/15/2024,12/16/2024,N,01/16/2025,01/15/2027,01/23/2025,01/24/2025,AAI,,,41.889118078,-87.629923303,POINT (-87.62992330278485 41.88911807836364)
2877326-20250116,3001450,486654,1,"PORKCHOP RESTAURANT AND BAR, LLC",Porkchop Restaurant and Bar | Big Tex Tacos | Meet and Whiskey,6341-6343 N BROADWAY  1,CHICAGO,IL,60660,48,27,48-27,24,1050,Public Place of Amusement,746,"Public Place of Amusement, Provides Entertainment, Room Rentals and Charges a Fee",2877326,RENEW,,11/15/2024,01/03/2025,N,01/16/2025,10/15/2026,02/07/2025,02/10/2025,AAI,,26,41.997594186,-87.660344865,POINT (-87.66034486500234 41.997594186195435)
35841-20250116,2999503,86135,1,"EL MEXICO MODERNO BALLROOM, INC.",EL MEXICO MODERN BALLROOM INC,1643-1647 N CICERO AVE 1 & 2 BANQU,CHICAGO,IL,60639,37,2,37-2,25,1050,Public Place of Amusement,743,Provides Onsite Amusement or Entertainment,35841,RENEW,,11/15/2024,01/15/2025,N,01/16/2025,01/15/2027,02/06/2025,02/07/2025,AAI,,,41.910931169,-87.74575021,POINT (-87.74575021004954 41.91093116886587)
2349887-20250116,3000683,392564,1,CJI ENTERTAINMENT LLC,No. 18 Karaoke,2201 S WENTWORTH AVE 2,CHICAGO,IL,60616,,,,,1050,Public Place of Amusement,746,"Public Place of Amusement, Provides Entertainment, Room Rentals and Charges a Fee",2349887,RENEW,,11/15/2024,01/22/2025,N,01/16/2025,01/15/2027,01/29/2025,01/30/2025,AAI,,,41.852818394,-87.631861666,POINT (-87.63186166579213 41.85281839386875)
2631158-20250116,3001031,432320,1,6651 INC.,MONDAY BLUES,6651 N CLARK ST 1,CHICAGO,IL,60626,49,4,49-4,24,1470,Tavern,829,Tavern - Consumption of Liquor on Premises,2631158,RENEW,,11/15/2024,01/14/2025,N,01/16/2025,01/15/2027,01/14/2025,01/14/2025,AAI,,24,42.003205713,-87.672222792,POINT (-87.67222279211758 42.003205712631)
2083390-20250116,3000407,340167,1,"1412 WEST CHICAGO AVENUE, LLC",LUSH WINE & SPIRITS,1412 W CHICAGO AVE 1ST,CHICAGO,IL,60642,27,32,27-32,12,1470,Tavern,829,Tavern - Consumption of Liquor on Premises,2083390,RENEW,,11/15/2024,01/09/2025,N,01/16/2025,01/15/2027,01/09/2025,01/10/2025,AAI,,29,41.89625011,-87.662954107,POINT (-87.66295410715367 41.89625011016584)
2342232-20250116,3000672,388602,1,"VHC MIDDLE, LLC",UPSTAIRS VIRGIN HOTELS,203 N WABASH AVE 25,CHICAGO,IL,60601,42,9,42-9,1,1477,Outdoor Patio,784,Sale of Liquor Outdoors on Private Property,2342232,RENEW,,11/15/2024,12/17/2024,N,01/16/2025,01/15/2027,12/17/2024,12/18/2024,AAI,,,41.885828293,-87.626138262,POINT (-87.62613826248786 41.885828292802344)
1676098-20250116,3000224,299799,1,LUCKY INN INC.,LUCKY INN INC.,5948 W DIVERSEY AVE,CHICAGO,IL,60639,30,12,30-12,25,1470,Tavern,829,Tavern - Consumption of Liquor on Premises,1676098,RENEW,,11/15/2024,01/10/2025,N,01/16/2025,01/15/2027,01/10/2025,01/13/2025,AAI,,,41.931254722,-87.775517484,POINT (-87.77551748411777 41.93125472207035)
2314276-20250116,3000676,388610,1,"VHC UPPER, LLC",CERISE,203 N WABASH AVE 26,CHICAGO,IL,60601,42,9,42-9,1,1477,Outdoor Patio,784,Sale of Liquor Outdoors on Private Property,2314276,RENEW,,11/15/2024,12/17/2024,N,01/16/2025,01/15/2027,12/17/2024,12/18/2024,AAI,,,41.885828293,-87.626138262,POINT (-87.62613826248786 41.885828292802344)
2877774-20250116,3001503,491729,1,RANDALL'S PUB LLC,RANDALL'S PUB,6341 N CLARK ST GROUND,CHICAGO,IL,60660,48,20,48-20,24,1470,Tavern,767 | 829,Retail Sales of General Merchandise and Non-Perishable Food | Tavern - Consumption of Liquor on Premises,2877774,RENEW,,11/15/2024,11/27/2024,N,01/16/2025,01/15/2027,11/27/2024,11/29/2024,AAI,,,41.997507549,-87.670287028,POINT (-87.67028702779074 41.99750754864776)
1197540-20250116,2999116,11389,1,"ROBERT & ALLEN'S REGENCY INN,  INC.",REGENCY INN,5319 W DIVERSEY AVE,CHICAGO,IL,60639,31,46,31-46,25,1050,Public Place of Amusement,743,Provides Onsite Amusement or Entertainment,1197540,RENEW,,11/15/2024,12/20/2024,N,01/16/2025,01/15/2027,12/20/2024,01/16/2025,AAI,,,41.931248725,-87.759680662,POINT (-87.75968066162403 41.93124872462609)
13219-20250116,2999217,27222,1,3659 S. INDIANA CORPORATION,W. HIDEAWAY LOUNGE,3659 S INDIANA AVE  1ST,CHICAGO,IL,60653,3,58,3-58,2,1470,Tavern,829,Tavern - Consumption of Liquor on Premises,13219,RENEW,,11/15/2024,11/18/2024,N,01/16/2025,01/15/2027,11/18/2024,11/19/2024,AAI,,,41.827954093,-87.62154879,POINT (-87.62154879010953 41.82795409340236)
1820588-20250116,3000334,317356,1,TRIER LAD'S INC.,"TRIER LAD'S, INC.",4010 W ARMITAGE AVE,CHICAGO,IL,60639,26,49,26-49,25,1470,Tavern,829,Tavern - Consumption of Liquor on Premises,1820588,RENEW,,11/15/2024,11/18/2024,N,01/16/2025,01/15/2027,11/18/2024,11/19/2024,AAI,,,41.917269325,-87.727080672,POINT (-87.7270806717635 41.917269324979415)
2027823-20250116,3000051,250611,1,"CASTELAN II, INC.",RESTAURANT EL RANCHITO,5959 W GRAND AVE,CHICAGO,IL,60639,36,7,36-7,25,1050,Public Place of Amusement,743,Provides Onsite Amusement or Entertainment,2027823,RENEW,,11/15/2024,01/06/2025,N,01/16/2025,01/15/2027,01/29/2025,01/30/2025,AAI,,,41.920426518,-87.775499002,POINT (-87.77549900214635 41.92042651834003)
50026-20250116,2999170,17259,5,"ODB ENTERPRISES, INC.",JEREMY LANIGANS,3119 -3123 W 111TH ST 1ST,CHICAGO,IL,60655,19,55,19-55,22,1470,Tavern,829,Tavern - Consumption of Liquor on Premises,50026,RENEW,,11/15/2024,01/23/2025,N,01/16/2025,01/15/2027,01/23/2025,02/13/2025,AAI,,55,41.69147669,-87.699210478,POINT (-87.69921047840656 41.69147668957545)
14828-20250116,2999058,6565,1,"MYSTIC, INC.",BAR 106,10649 S PULASKI RD 1,CHICAGO,IL,60655,19,16,19-16,22,1470,Tavern,829,Tavern - Consumption of Liquor on Premises,14828,RENEW,,11/15/2024,12/30/2024,N,01/16/2025,01/15/2027,12/30/2024,12/31/2024,AAI,,,41.698911053,-87.720503305,POINT (-87.72050330489338 41.69891105319152)
35842-20250116,2999502,86135,1,"EL MEXICO MODERNO BALLROOM, INC.",EL MEXICO MODERN BALLROOM INC,1643-1647 N CICERO AVE 1 & 2 BANQU,CHICAGO,IL,60639,37,2,37-2,25,1470,Tavern,829,Tavern - Consumption of Liquor on Premises,35842,RENEW,,11/15/2024,01/15/2025,N,01/16/2025,01/15/2027,01/15/2025,01/16/2025,AAI,,,41.910931169,-87.74575021,POINT (-87.74575021004954 41.91093116886587)
2088254-20250116,3000455,351881,1,"HAYMARKET BREWING COMPANY, LLC",Haymarket Pub & Brewery,737-741 W RANDOLPH ST 1,CHICAGO,IL,60661,27,45,27-45,12,1050,Public Place of Amusement,743,Provides Onsite Amusement or Entertainment,2088254,RENEW,,11/15/2024,01/21/2025,N,01/16/2025,01/15/2027,01/21/2025,01/29/2025,AAI,,,41.884299517,-87.647213323,POINT (-87.64721332276186 41.88429951671007)
15282-20250116,2999059,6658,1,HONG HUAH INC.,HONG HUAH RESTAURANT,5924 W FULLERTON AVE 1,CHICAGO,IL,60639,30,11,30-11,25,1470,Tavern,829,Tavern - Consumption of Liquor on Premises,15282,RENEW,,11/15/2024,12/30/2024,N,01/16/2025,01/15/2027,12/30/2024,12/31/2024,AAI,,,41.923957138,-87.77444354,POINT (-87.77444353972444 41.92395713760071)
37457-20250116,2999144,15416,1,GRAND CENTRAL CORPORATION,JEREZ SPORT BAR AND GRILL,5726 W GRAND AVE,CHICAGO,IL,60639,36,21,36-21,25,1470,Tavern,829,Tavern - Consumption of Liquor on Premises,37457,RENEW,,11/15/2024,11/18/2024,N,01/16/2025,01/15/2027,11/18/2024,11/26/2024,AAI,,,41.919526594,-87.769375827,POINT (-87.76937582701346 41.919526594497476)
2093002-20250116,3000533,358925,2,LHC MANAGEMENT LLC,LAKESHORE SPORT & FITNESS,1320 W FULLERTON AVE 2,CHICAGO,IL,60614,32,48,32-48,19,1477,Outdoor Patio,784,Sale of Liquor Outdoors on Private Property,2093002,RENEW,,11/15/2024,12/26/2024,N,01/16/2025,01/15/2027,12/26/2024,12/27/2024,AAI,,,41.925357358,-87.661388544,POINT (-87.66138854381815 41.925357358100776)
2766830-20250116,3001217,471847,1,140 E. Walton Building LLC,The Drake Hotel,140 E WALTON PL 1,CHICAGO,IL,60611,2,23,2-23,18,1050,Public Place of Amusement,744,Provides Onsite Entertainment or Rentals,2766830,RENEW,,11/15/2024,12/23/2024,N,01/16/2025,01/15/2027,01/24/2025,01/27/2025,AAI,,,41.900118457,-87.623980519,POINT (-87.62398051946951 41.90011845725853)
22036-20250116,2999243,29423,1,HAPPY CRACOVIA LOUNGE. INC.,HAPPY CRACOVIA LOUNGE,2025 N CICERO AVE 1,CHICAGO,IL,60639,26,13,26-13,25,1470,Tavern,829,Tavern - Consumption of Liquor on Premises,22036,RENEW,,11/15/2024,01/09/2025,N,01/16/2025,01/15/2027,01/09/2025,01/09/2025,AAI,,,41.917682344,-87.745996325,POINT (-87.74599632516068 41.91768234380252)
2872629-20250116,3000827,406207,1,SANCERRE HOSPITALITY I  LLC,BLVD CHICAGO,817-819 W LAKE ST 1 & 2,CHICAGO,IL,60607,27,1,27-1,12,1477,Outdoor Patio,784,Sale of Liquor Outdoors on Private Property,2872629,RENEW,,11/15/2024,11/16/2024,N,01/16/2025,06/15/2025,11/16/2024,11/18/2024,AAI,,,41.885541849,-87.648228958,POINT (-87.6482289578284 41.88554184944766)
2646259-20250116,3007280,432320,1,6651 INC.,MONDAY BLUES,6651 N CLARK ST 1,CHICAGO,IL,60626,49,4,49-4,24,1050,Public Place of Amusement,744,Provides Onsite Entertainment or Rentals,2646259,RENEW,,01/14/2025,01/14/2025,N,01/16/2025,01/15/2027,01/15/2025,01/16/2025,AAI,,24,42.003205713,-87.672222792,POINT (-87.67222279211758 42.003205712631)
1818337-20250116,3000330,316523,1,"LAWLOR'S ON 111TH STREET, INC.",O'CONNELL'S CORNER,3636 W 111TH ST 1,CHICAGO,IL,60655,19,4,19-4,22,1470,Tavern,829,Tavern - Consumption of Liquor on Premises,1818337,RENEW,,11/15/2024,01/11/2025,N,01/16/2025,01/15/2027,01/11/2025,01/13/2025,AAI,,,41.691500334,-87.712075163,POINT (-87.71207516284547 41.69150033427282)
1446319-20250116,3000117,270495,1,J & A SPORTS BAR INC.,J & A SPORTS BAR,5650 W DIVERSEY AVE,CHICAGO,IL,60639,30,28,30-28,25,1470,Tavern,829,Tavern - Consumption of Liquor on Premises,1446319,RENEW,,11/15/2024,01/15/2025,N,01/16/2025,01/15/2027,01/15/2025,01/16/2025,AAI,,,41.931359742,-87.768306122,POINT (-87.76830612237863 41.931359742356165)
2723797-20250116,3000408,340167,1,"1412 WEST CHICAGO AVENUE, LLC",LUSH WINE & SPIRITS,1412 W CHICAGO AVE 1ST,CHICAGO,IL,60642,27,32,27-32,12,1477,Outdoor Patio,784,Sale of Liquor Outdoors on Private Property,2723797,RENEW,,11/15/2024,01/09/2025,N,01/16/2025,01/15/2027,01/09/2025,01/10/2025,AAI,,29,41.89625011,-87.662954107,POINT (-87.66295410715367 41.89625011016584)
41727-20250116,2999107,10316,1,"LA FIESTA, INC.",LA FIESTA RESTAURANT,3323 W 111TH ST 1ST A,CHICAGO,IL,60655,19,21,19-21,22,1477,Outdoor Patio,784,Sale of Liquor Outdoors on Private Property,41727,RENEW,,11/15/2024,12/31/2024,N,01/16/2025,01/15/2027,12/31/2024,01/02/2025,AAI,,55,41.691404254,-87.704282418,POINT (-87.70428241797512 41.69140425433916)
35589-20250116,2999268,32882,1,"BLONDIE'S LOUNGE, LTD.",BLONDIE'S LOUNGE LTD,4958 W DIVERSEY AVE 1ST,CHICAGO,IL,60639,31,50,31-50,25,1470,Tavern,829,Tavern - Consumption of Liquor on Premises,35589,RENEW,,11/15/2024,01/14/2025,N,01/16/2025,01/15/2027,01/14/2025,01/15/2025,AAI,,,41.931578736,-87.751386072,POINT (-87.75138607235448 41.931578736230854)
2314223-20250116,3000658,388593,1,"VHC LOWER, LLC","VHC LOWER, LLC",203 N WABASH AVE LL - 3,CHICAGO,IL,60601,42,9,42-9,1,1050,Public Place of Amusement,744,Provides Onsite Entertainment or Rentals,2314223,RENEW,,11/15/2024,12/17/2024,N,01/16/2025,01/15/2027,01/17/2025,01/22/2025,AAI,,,41.885828293,-87.626138262,POINT (-87.62613826248786 41.885828292802344)
10444-20250116,2999042,4634,1,FULLERTON CONNECTION INC,THE LEVEE LOUNGE,4035 W FULLERTON AVE 1,CHICAGO,IL,60639,35,14,35-14,25,1470,Tavern,829,Tavern - Consumption of Liquor on Premises,10444,RENEW,,11/15/2024,12/04/2024,N,01/16/2025,01/15/2027,12/04/2024,12/05/2024,AAI,,,41.924358122,-87.728212041,POINT (-87.72821204063166 41.924358122081486)
2670921-20250116,3000560,360549,4,THE BEER TEMPLE LLC,THE BEER TEMPLE,3169-3175 N ELSTON AVE,CHICAGO,IL,60618,35,19,35-19,14,1470,Tavern,829,Tavern - Consumption of Liquor on Premises,2670921,RENEW,,11/15/2024,01/14/2025,N,01/16/2025,01/15/2027,01/14/2025,01/15/2025,AAI,,,41.93877274,-87.697205524,POINT (-87.69720552355243 41.93877273984495)
2689162-20250116,3001023,431623,2,"ALTITUDE CHICAGO, LLC",ALTITUDE CHICAGO,404 N ARMOUR ST 1ST,CHICAGO,IL,60642,27,33,27-33,12,1050,Public Place of Amusement,746,"Public Place of Amusement, Provides Entertainment, Room Rentals and Charges a Fee",2689162,RENEW,,11/15/2024,11/19/2024,N,01/16/2025,01/15/2027,01/14/2025,01/15/2025,AAI,,,41.88901259,-87.665604916,POINT (-87.66560491574995 41.889012590259405)
2314251-20250116,3000671,388602,1,"VHC MIDDLE, LLC",UPSTAIRS VIRGIN HOTELS,203 N WABASH AVE 25,CHICAGO,IL,60601,42,9,42-9,1,1050,Public Place of Amusement,744,Provides Onsite Entertainment or Rentals,2314251,RENEW,,11/15/2024,12/17/2024,N,01/16/2025,01/15/2027,01/17/2025,01/22/2025,AAI,,,41.885828293,-87.626138262,POINT (-87.62613826248786 41.885828292802344)
2055106-20250116,3000471,356347,1,2032 WEST ARMITAGE AVENUE LLC,ED AND JEAN'S,2032 W ARMITAGE AVE 1ST,CHICAGO,IL,60647,32,34,32-34,14,1470,Tavern,829,Tavern - Consumption of Liquor on Premises,2055106,RENEW,,11/15/2024,01/13/2025,N,01/16/2025,01/15/2027,01/13/2025,01/15/2025,AAI,,33,41.917841384,-87.678936829,POINT (-87.67893682868016 41.91784138378249)
2583308-20250116,3000876,412197,1,"BLIND BARBER CHICAGO, LLC",BLIND BARBER,948 W FULTON MARKET  1ST FLR,CHICAGO,IL,60607,27,57,27-57,12,1050,Public Place of Amusement,746,"Public Place of Amusement, Provides Entertainment, Room Rentals and Charges a Fee",2583308,RENEW,,11/15/2024,11/18/2024,N,01/16/2025,01/15/2027,01/14/2025,01/15/2025,AAI,,,,,
2501536-20250116,3000867,411974,1,PINEAPPLE HOSPITALITY COMPANY,Staypineapple Chicago,1 W WASHINGTON ST 1-15,CHICAGO,IL,60602,34,9,34-9,1,1050,Public Place of Amusement,744,Provides Onsite Entertainment or Rentals,2501536,RENEW,,11/15/2024,01/06/2025,N,01/16/2025,01/15/2027,01/06/2025,01/06/2025,AAI,,1,41.883108627,-87.627948771,POINT (-87.62794877080378 41.883108627266935)
2876943-20250116,3001493,491183,1,"ALAMO WRIGLEYVILLE, LLC",ALAMO DRAFTHOUSE CINEMAS,3519 N CLARK ST  C301,CHICAGO,IL,60657,44,38,44-38,19,1050,Public Place of Amusement,746,"Public Place of Amusement, Provides Entertainment, Room Rentals and Charges a Fee",2876943,RENEW,,11/15/2024,11/20/2024,N,01/16/2025,01/15/2027,01/09/2025,01/14/2025,AAI,,17,41.946280811,-87.655603128,POINT (-87.65560312808297 41.94628081101039)
2314277-20250116,3000675,388610,1,"VHC UPPER, LLC",CERISE,203 N WABASH AVE 26,CHICAGO,IL,60601,42,9,42-9,1,1050,Public Place of Amusement,744,Provides Onsite Entertainment or Rentals,2314277,RENEW,,11/15/2024,12/17/2024,N,01/16/2025,01/15/2027,01/17/2025,01/22/2025,AAI,,,41.885828293,-87.626138262,POINT (-87.62613826248786 41.885828292802344)
2120945-20250116,3000564,366847,1,THE ITALIAN JOB LLC,SIENA TAVERN,51 W KINZIE ST,CHICAGO,IL,60654,42,55,42-55,18,1470,Tavern,829,Tavern - Consumption of Liquor on Premises,2120945,RENEW,,11/15/2024,12/16/2024,N,01/16/2025,01/15/2027,12/16/2024,12/17/2024,AAI,,,41.889118078,-87.629923303,POINT (-87.62992330278485 41.88911807836364)
2189609-20250116,3000463,353266,2,"THE HUBBARD HOUSE RESTAURANT, LLC",HUBBARD INN,110 W HUBBARD ST 1-3,CHICAGO,IL,60654,42,32,42-32,18,1050,Public Place of Amusement,746,"Public Place of Amusement, Provides Entertainment, Room Rentals and Charges a Fee",2189609,RENEW,,11/15/2024,01/02/2025,N,01/16/2025,01/15/2027,01/17/2025,01/22/2025,AAI,,,41.890123938,-87.631596659,POINT (-87.63159665930549 41.89012393802728)
17935-20250116,2999228,28445,1,RITA'S PLACE INC.,RITA'S PLACE INC.,5414 W FULLERTON AVE 1ST,CHICAGO,IL,60639,31,19,31-19,25,1470,Tavern,829,Tavern - Consumption of Liquor on Premises,17935,RENEW,,11/15/2024,01/14/2025,N,01/16/2025,01/15/2027,01/14/2025,01/15/2025,AAI,,,41.924144466,-87.761685537,POINT (-87.76168553742855 41.92414446631206)
3001984-20250110,3001984,512383,1,BOOKCLUB ENTERTAINMENT INC,BOOKCLUB,2871 N LINCOLN AVE,CHICAGO,IL,60657,32,8,32-8,19,1050,Public Place of Amusement,746 | 767 | 904 | 1089,"Public Place of Amusement, Provides Entertainment, Room Rentals and Charges a Fee | Retail Sales of General Merchandise and Non-Perishable Food | Retail Sales of General Merchandise | Multi-Media Services",3001984,ISSUE,11/19/2024,11/19/2024,11/19/2024,N,01/10/2025,01/15/2027,01/10/2025,01/10/2025,AAI,,27,41.934163264,-87.6607423,POINT (-87.66074230014898 41.93416326415334)
2997161-20250102,2997161,511461,2,"SZ NORTH KINGSBURY, LLC",Sky Zone Chicago Lincoln Park,1419-1435 N KINGSBURY ST,CHICAGO,IL,60642,27,37,27-37,18,1050,Public Place of Amusement,746,"Public Place of Amusement, Provides Entertainment, Room Rentals and Charges a Fee",2997161,ISSUE,10/22/2024,10/22/2024,10/23/2024,N,01/02/2025,01/15/2027,01/02/2025,01/02/2025,AAI,,,41.906616595,-87.650384277,POINT (-87.6503842773408 41.90661659546233)
2522194-20241216,2994935,339641,6,GMB PARTNERS LLC,HALF ACRE BEER COMPANY,2050 W BALMORAL AVE,CHICAGO,IL,60625,40,45,40-45,20,1470,Tavern,829,Tavern - Consumption of Liquor on Premises,2522194,RENEW,,10/15/2024,10/15/2024,N,12/16/2024,12/15/2026,10/15/2024,10/16/2024,AAI,,,41.979747942,-87.681538949,POINT (-87.6815389486624 41.97974794152861)
2299179-20241216,2994560,247658,1,"SOAG, INC.",THE RAMBLER KITCHEN + TAP,4128 N LINCOLN AVE,CHICAGO,IL,60618,47,35,47-35,19,1477,Outdoor Patio,784,Sale of Liquor Outdoors on Private Property,2299179,RENEW,,10/15/2024,,N,12/16/2024,12/15/2026,11/25/2024,11/26/2024,AAI,,38,41.956771632,-87.680757337,POINT (-87.68075733672262 41.95677163177934)
2708566-20241216,2994608,265228,1,3910 RESTAURANT INC.,BOEM,3910-3914 W MONTROSE AVE,CHICAGO,IL,60618,33,31,33-31,17,1477,Outdoor Patio,784,Sale of Liquor Outdoors on Private Property,2708566,RENEW,,10/15/2024,12/06/2024,N,12/16/2024,12/15/2026,12/06/2024,01/30/2025,AAI,,,41.961082321,-87.725867448,POINT (-87.72586744763474 41.96108232127343)
2579166-20241216,2995851,425042,1,RN PIZZA VENTURES LLC,PARLOR PIZZA BAR,405 N DEARBORN ST 1 AND MEZZ,CHICAGO,IL,60654,42,25,42-25,18,1050,Public Place of Amusement,746,"Public Place of Amusement, Provides Entertainment, Room Rentals and Charges a Fee",2579166,RENEW,,10/15/2024,10/28/2024,N,12/16/2024,12/15/2026,01/29/2025,01/30/2025,AAI,,,41.889419805,-87.62944581,POINT (-87.62944581049157 41.889419804559985)
25258-20241216,2994136,10268,1,"O & W ENTERPRISES, INC.",N,2977 N ELSTON AVE 1,CHICAGO,IL,60618,35,5,35-5,14,1470,Tavern,829,Tavern - Consumption of Liquor on Premises,25258,RENEW,,10/15/2024,12/13/2024,N,12/16/2024,12/15/2026,12/13/2024,01/03/2025,AAI,,,41.935613511,-87.692603112,POINT (-87.692603112342 41.935613510572914)
2771485-20241216,2996235,471615,1,HACIENDA D' SUAREZ LLC,HACIENDA D' SUAREZ,3466-3470 N CLARK ST,CHICAGO,IL,60657,44,38,44-38,19,1050,Public Place of Amusement,746,"Public Place of Amusement, Provides Entertainment, Room Rentals and Charges a Fee",2771485,RENEW,,10/15/2024,12/27/2024,N,12/16/2024,12/15/2026,12/27/2024,12/30/2024,AAI,,17,41.945159767,-87.655042186,POINT (-87.65504218631185 41.9451597671042)
2583409-20241216,3002157,16803,2,3932 WEST IRVING PARK CORPORATION,INDEPENDENCE TAP,3932-3934 W IRVING PARK RD 1,CHICAGO,IL,60618,45,27,45-27,17,1050,Public Place of Amusement,744,Provides Onsite Entertainment or Rentals,2583409,RENEW,,11/22/2024,12/30/2024,N,12/16/2024,12/15/2026,01/02/2025,01/03/2025,AAI,,,41.95377451,-87.726458707,POINT (-87.7264587067583 41.95377450976464)
802-20241216,2993825,150,1,"RESI'S BIERSTUBE, INC.",RESI'S BIERSTUBE INC,2034 W IRVING PARK RD 1ST,CHICAGO,IL,60618,47,35,47-35,19,1477,Outdoor Patio,784,Sale of Liquor Outdoors on Private Property,802,RENEW,,10/15/2024,12/09/2024,N,12/16/2024,12/15/2026,12/09/2024,12/24/2024,AAI,,38,41.954243671,-87.680304246,POINT (-87.68030424642977 41.95424367096349)
2528959-20241216,2995808,416480,1,"PARSON'S LINCOLN PARK, LLC",PARSON'S CHICKEN & FISH,2435-2439 N HALSTED ST 1,CHICAGO,IL,60614,43,21,43-21,19,1477,Outdoor Patio,784,Sale of Liquor Outdoors on Private Property,2528959,RENEW,,10/15/2024,12/09/2024,N,12/16/2024,12/15/2026,12/09/2024,12/26/2024,AAI,,35,41.926435914,-87.648648421,POINT (-87.64864842130223 41.9264359140957)
801-20241216,2993823,150,1,"RESI'S BIERSTUBE, INC.",RESI'S BIERSTUBE INC,2034 W IRVING PARK RD 1ST,CHICAGO,IL,60618,47,35,47-35,19,1470,Tavern,829,Tavern - Consumption of Liquor on Premises,801,RENEW,,10/15/2024,12/09/2024,N,12/16/2024,12/15/2026,12/09/2024,12/24/2024,AAI,,38,41.954243671,-87.680304246,POINT (-87.68030424642977 41.95424367096349)
2157767-20241216,2995133,372870,1,BOBY G INC.,BOBY G,5637-5639 W GRAND AVE,CHICAGO,IL,60639,36,21,36-21,25,1050,Public Place of Amusement,743,Provides Onsite Amusement or Entertainment,2157767,RENEW,,10/15/2024,12/10/2024,N,12/16/2024,12/15/2026,12/10/2024,12/24/2024,AAI,,,41.918922495,-87.767321601,POINT (-87.76732160126718 41.91892249549356)
2501534-20241216,2995727,411963,1,PINEAPPLE RESTAURANT GROUP LLC,ATWOOD,1 W WASHINGTON ST 1,CHICAGO,IL,60602,34,9,34-9,1,1050,Public Place of Amusement,746,"Public Place of Amusement, Provides Entertainment, Room Rentals and Charges a Fee",2501534,RENEW,,10/15/2024,12/20/2024,N,12/16/2024,12/15/2026,12/20/2024,12/23/2024,AAI,,1,41.883108627,-87.627948771,POINT (-87.62794877080378 41.883108627266935)
2851063-20241216,2995627,408979,3,"EDEN IN CHICAGO, LLC",EDEN,2734 W ROSCOE ST 1,CHICAGO,IL,60618,35,9,35-9,17,1477,Outdoor Patio,784,Sale of Liquor Outdoors on Private Property,2851063,RENEW,,10/15/2024,12/19/2024,N,12/16/2024,12/15/2026,12/19/2024,12/20/2024,AAI,,,41.942905772,-87.696950157,POINT (-87.6969501565478 41.94290577175032)
405-20241216,2993821,73,1,4301 NORTH WESTERN AVENUE INCORPORATED,CELTIC CROWN,4301 N WESTERN AVE 1,CHICAGO,IL,60618,47,8,47-8,19,1470,Tavern,829,Tavern - Consumption of Liquor on Premises,405,RENEW,,10/15/2024,12/16/2024,N,12/16/2024,12/15/2026,12/16/2024,12/17/2024,AAI,,38,41.959539276,-87.688483804,POINT (-87.68848380383307 41.959539275814876)
1694768-20241216,2994124,9343,2,"BEAT KITCHEN, INC.",BEAT KITCHEN,2100 W BELMONT AVE 1ST & 2ND,CHICAGO,IL,60618,32,42,32-42,19,1050,Public Place of Amusement,743,Provides Onsite Amusement or Entertainment,1694768,RENEW,,10/15/2024,12/13/2024,N,12/16/2024,12/15/2026,12/13/2024,12/16/2024,AAI,,,41.939651932,-87.680903205,POINT (-87.6809032053269 41.93965193153802)
1621305-20241216,2994697,286468,1,"BUSE, INC.",KUMA'S CORNER,2900 W BELMONT AVE,CHICAGO,IL,60618,33,2,33-2,17,1477,Outdoor Patio,784,Sale of Liquor Outdoors on Private Property,1621305,RENEW,,10/15/2024,10/16/2024,N,12/16/2024,12/15/2026,10/16/2024,12/16/2024,AAI,,,41.939485579,-87.700340943,POINT (-87.70034094294124 41.939485579187576)
1245747-20241216,2994553,246865,1,"THE CARACOL GROUP, INCORPORATED",CROWN LIQUORS,2821 N MILWAUKEE AVE 1,CHICAGO,IL,60618,35,11,35-11,14,1470,Tavern,829,Tavern - Consumption of Liquor on Premises,1245747,RENEW,,10/15/2024,12/16/2024,N,12/16/2024,12/15/2026,12/16/2024,12/16/2024,AAI,,,41.93250194,-87.712799955,POINT (-87.71279995528784 41.932501940013964)
2993741-20241216,2993741,396277,3,ILLUMINATED BREW WORKS LLC,Illuminated Brew Works,6186 N NORTHWEST HWY,CHICAGO,IL,60631,41,22,41-22,16,1477,Outdoor Patio,784,Sale of Liquor Outdoors on Private Property,2993741,ISSUE,10/11/2024,10/15/2024,10/15/2024,N,12/16/2024,01/15/2027,12/16/2024,12/16/2024,AAI,,,41.994129359,-87.802262011,POINT (-87.80226201134202 41.99412935894236)
14942-20241216,2994093,6581,1,"PAUL AND JOE'S LOUNGE, INC.",UNDERBAR,3243 N WESTERN AVE 1ST,CHICAGO,IL,60618,32,19,32-19,19,1470,Tavern,829,Tavern - Consumption of Liquor on Premises,14942,RENEW,,10/15/2024,12/13/2024,N,12/16/2024,12/15/2026,12/13/2024,12/16/2024,AAI,,,41.940728693,-87.687803475,POINT (-87.68780347472068 41.94072869326572)
334-20241216,2993817,58,1,ERMI INC,LATE BAR,3534 W BELMONT AVE,CHICAGO,IL,60618,35,24,35-24,17,1470,Tavern,829,Tavern - Consumption of Liquor on Premises,334,RENEW,,10/15/2024,12/13/2024,N,12/16/2024,12/15/2026,12/13/2024,12/16/2024,AAI,,,41.939338049,-87.716397185,POINT (-87.71639718488446 41.93933804928447)
2397593-20241216,2994985,346147,1,ZERO DEGREES KARAOKE BAR LLC,ZERO DEGREES KARAOKE BAR LLC,445-453 W 24TH ST 2ND 1,CHICAGO,IL,60616,11,37,11-37,9,1050,Public Place of Amusement,744,Provides Onsite Entertainment or Rentals,2397593,RENEW,,10/15/2024,11/08/2024,N,12/16/2024,12/15/2026,12/13/2024,12/16/2024,AAI,,,41.848958266,-87.638514086,POINT (-87.63851408560235 41.848958266062155)
1822098-20241216,2994850,317999,1,LIBERTY LOUNGE INC.,LIBERTY LOUNGE,3341 N WESTERN AVE 1,CHICAGO,IL,60618,32,25,32-25,19,1470,Tavern,829,Tavern - Consumption of Liquor on Premises,1822098,RENEW,,10/15/2024,11/11/2024,N,12/16/2024,12/15/2026,11/11/2024,12/13/2024,AAI,,,41.942518871,-87.687882546,POINT (-87.68788254619245 41.94251887139443)
498-20241216,2994272,24056,1,"3056 W. MONTROSE , INC.",PEACOCK LIQUORS,3056 W MONTROSE AVE 1ST,CHICAGO,IL,60618,33,8,33-8,17,1470,Tavern,829,Tavern - Consumption of Liquor on Premises,498,RENEW,,10/15/2024,12/11/2024,N,12/16/2024,12/15/2026,12/11/2024,12/12/2024,AAI,,60,41.961314366,-87.705662345,POINT (-87.70566234510721 41.96131436609295)
2463338-20241216,2995524,405775,1,"GREEN SCREENZ ENTERTAINMENT GROUP, LLC",THE DAVIS THEATER; SOJOURN,4614-4626 N LINCOLN AVE 1,CHICAGO,IL,60625,47,42,47-42,19,1050,Public Place of Amusement,746,"Public Place of Amusement, Provides Entertainment, Room Rentals and Charges a Fee",2463338,RENEW,,10/15/2024,11/12/2024,N,12/16/2024,12/15/2026,12/11/2024,12/12/2024,AAI,,21,41.965259737,-87.686510755,POINT (-87.68651075511647 41.96525973742128)
1577120-20241216,2994688,282836,1,VOLO RESTAURANT LLC,VOLO RESTAURANT,2008 W ROSCOE ST 1,CHICAGO,IL,60618,32,21,32-21,19,1477,Outdoor Patio,784,Sale of Liquor Outdoors on Private Property,1577120,RENEW,,10/15/2024,12/11/2024,N,12/16/2024,12/15/2026,12/11/2024,12/12/2024,AAI,,,41.943322631,-87.678849097,POINT (-87.67884909733532 41.94332263059663)
47734-20241216,2994236,16882,1,"SONNY ONE, LTD.",SMALL BAR #1,2956 N ALBANY AVE,CHICAGO,IL,60618,35,18,35-18,14,1470,Tavern,829,Tavern - Consumption of Liquor on Premises,47734,RENEW,,10/15/2024,12/10/2024,N,12/16/2024,12/15/2026,12/10/2024,12/11/2024,AAI,,,41.935547698,-87.70521895,POINT (-87.70521894972788 41.93554769753773)
19067-20241216,2994330,28661,1,"KIRCH-LO, INC.",RECLAIMED BAR AND RESTAURANT,3655 N WESTERN AVE 1 1ST,CHICAGO,IL,60618,47,51,47-51,19,1470,Tavern,829,Tavern - Consumption of Liquor on Premises,19067,RENEW,,10/15/2024,12/10/2024,N,12/16/2024,12/15/2026,12/10/2024,12/11/2024,AAI,,38,41.948345865,-87.688155489,POINT (-87.6881554885054 41.948345864607994)
2600912-20241216,2994331,28661,1,"KIRCH-LO, INC.",RECLAIMED BAR AND RESTAURANT,3655 N WESTERN AVE 1 1ST,CHICAGO,IL,60618,47,51,47-51,19,1477,Outdoor Patio,784,Sale of Liquor Outdoors on Private Property,2600912,RENEW,,10/15/2024,12/10/2024,N,12/16/2024,12/15/2026,12/10/2024,12/11/2024,AAI,,38,41.948345865,-87.688155489,POINT (-87.6881554885054 41.948345864607994)
1479630-20241216,2994237,16882,1,"SONNY ONE, LTD.",SMALL BAR #1,2956 N ALBANY AVE,CHICAGO,IL,60618,35,18,35-18,14,1477,Outdoor Patio,784,Sale of Liquor Outdoors on Private Property,1479630,RENEW,,10/15/2024,12/10/2024,N,12/16/2024,12/15/2026,12/10/2024,12/11/2024,AAI,,,41.935547698,-87.70521895,POINT (-87.70521894972788 41.93554769753773)
2617001-20241216,2995906,429896,1,464 ASHLAND INC.,Everything Bar,1601-1609 W GRAND AVE BASEMENT-1 A,CHICAGO,IL,60622,27,33,27-33,12,1470,Tavern,829,Tavern - Consumption of Liquor on Premises,2617001,RENEW,,10/15/2024,12/10/2024,N,12/16/2024,12/15/2026,12/10/2024,12/11/2024,AAI,,,41.89086758,-87.667203733,POINT (-87.66720373257142 41.89086757973928)
2600988-20241216,2995815,419989,1,MADISON WACKER RESTAURANT CORP.,ONE NORTH KITCHEN AND BAR,1 N WACKER DR 1,CHICAGO,IL,60606,42,9,42-9,1,1477,Outdoor Patio,784,Sale of Liquor Outdoors on Private Property,2600988,RENEW,,10/15/2024,12/10/2024,N,12/16/2024,12/15/2026,12/10/2024,12/11/2024,AAI,,,41.881951876,-87.636620349,POINT (-87.63662034940238 41.88195187648601)
8918-20241216,2994302,25991,1,CHUCK'S & ED'S TAVERN INC,CHUCK'S & ED'S TAVERN,3556 W BELMONT AVE 1ST,CHICAGO,IL,60618,35,999,35-999,17,1470,Tavern,829,Tavern - Consumption of Liquor on Premises,8918,RENEW,,10/15/2024,12/11/2024,N,12/16/2024,12/15/2026,12/11/2024,12/11/2024,AAI,,,41.939327763,-87.717261963,POINT (-87.71726196252287 41.93932776333894)
34693-20241216,2994192,14895,1,T & A TOO INC,T & A TOO INC,4156 N ST LOUIS AVE,CHICAGO,IL,60618,33,16,33-16,17,1470,Tavern,829,Tavern - Consumption of Liquor on Premises,34693,RENEW,,10/15/2024,12/10/2024,N,12/16/2024,12/15/2026,12/10/2024,12/10/2024,AAI,,,41.957310961,-87.715617907,POINT (-87.7156179066361 41.95731096114492)
2822648-20241216,2994323,27926,1,ERRO INC,MONTROSE SALOON,2933 W MONTROSE AVE 1 #,CHICAGO,IL,60618,33,23,33-23,17,1050,Public Place of Amusement,744,Provides Onsite Entertainment or Rentals,2822648,RENEW,,10/15/2024,12/04/2024,N,12/16/2024,12/15/2026,12/09/2024,12/10/2024,AAI,,60,41.961116939,-87.702274158,POINT (-87.70227415826348 41.961116939451195)
2595524-20241216,2995862,427301,1,ONION CERMAK ENTERPRISES LLC,FATPOUR TAP WORKS,"2206 S INDIANA AVE MEZZ, 1, & 2",CHICAGO,IL,60616,3,17,3-17,1,1050,Public Place of Amusement,746,"Public Place of Amusement, Provides Entertainment, Room Rentals and Charges a Fee",2595524,RENEW,,10/15/2024,12/09/2024,N,12/16/2024,12/15/2026,12/09/2024,12/10/2024,AAI,,,41.852637001,-87.622408701,POINT (-87.62240870131416 41.85263700127411)
7897-20241216,2994300,25746,2,"WAVELAND LOUNGE, INC.",WAVELAND BOWL,3700 N WESTERN AVE 1,CHICAGO,IL,60618,47,46,47-46,19,1050,Public Place of Amusement,743,Provides Onsite Amusement or Entertainment,7897,RENEW,,10/15/2024,10/25/2024,N,12/16/2024,12/15/2026,12/09/2024,12/10/2024,AAI,,38,41.948636884,-87.688457506,POINT (-87.68845750645744 41.94863688380228)
1042370-20241216,2994373,35373,1,"HUNGRY BRAIN,INC.",HUNGRY BRAIN,2319 W BELMONT AVE 1,CHICAGO,IL,60618,32,42,32-42,19,1477,Outdoor Patio,784,Sale of Liquor Outdoors on Private Property,1042370,RENEW,,10/15/2024,12/09/2024,N,12/16/2024,12/15/2026,12/09/2024,12/10/2024,AAI,,,41.939364444,-87.686397637,POINT (-87.68639763702431 41.939364443955505)
2398684-20241216,2994879,327527,10,ELASTIC ARTS FOUNDATION,ELASTIC,3429 W DIVERSEY AVE  208,CHICAGO,IL,60647,35,17,35-17,14,1050,Public Place of Amusement,746,"Public Place of Amusement, Provides Entertainment, Room Rentals and Charges a Fee",2398684,RENEW,,10/15/2024,11/05/2024,N,12/16/2024,12/15/2026,11/22/2024,12/09/2024,AAI,,,41.931847783,-87.713426626,POINT (-87.7134266263389 41.931847783035664)
2623039-20241216,2995864,427301,1,ONION CERMAK ENTERPRISES LLC,FATPOUR TAP WORKS,"2206 S INDIANA AVE MEZZ, 1, & 2",CHICAGO,IL,60616,3,17,3-17,1,1477,Outdoor Patio,784,Sale of Liquor Outdoors on Private Property,2623039,RENEW,,10/15/2024,12/09/2024,N,12/16/2024,12/15/2026,12/09/2024,12/10/2024,AAI,,,41.852637001,-87.622408701,POINT (-87.62240870131416 41.85263700127411)
44228-20241216,2994372,35373,1,"HUNGRY BRAIN,INC.",HUNGRY BRAIN,2319 W BELMONT AVE 1,CHICAGO,IL,60618,32,42,32-42,19,1470,Tavern,829,Tavern - Consumption of Liquor on Premises,44228,RENEW,,10/15/2024,12/09/2024,N,12/16/2024,12/15/2026,12/09/2024,12/10/2024,AAI,,,41.939364444,-87.686397637,POINT (-87.68639763702431 41.939364443955505)
1694910-20241216,2994769,302792,1,SACA INCORPORATED,LIZARD'S LIQUID LOUNGE,3058 W IRVING PARK RD 1,CHICAGO,IL,60618,33,11,33-11,17,1470,Tavern,829,Tavern - Consumption of Liquor on Premises,1694910,RENEW,,10/15/2024,12/07/2024,N,12/16/2024,12/15/2026,12/07/2024,12/09/2024,AAI,,60,41.95404564,-87.705514293,POINT (-87.70551429267886 41.9540456395967)
5846-20241216,2994291,25275,1,REGINA & JOE INC,REGINA & JOE'S TAP,2988 N MILWAUKEE AVE 1ST,CHICAGO,IL,60618,35,13,35-13,25,1470,Tavern,829,Tavern - Consumption of Liquor on Premises,5846,RENEW,,10/15/2024,12/05/2024,N,12/16/2024,12/15/2026,12/05/2024,12/06/2024,AAI,,,41.9354824,-87.718151221,POINT (-87.7181512208209 41.93548239995626)
956-20241216,2993828,178,1,2905 N ELSTON CORP,FREDY'S INN,2905 N ELSTON AVE,CHICAGO,IL,60618,35,7,35-7,14,1470,Tavern,829,Tavern - Consumption of Liquor on Premises,956,RENEW,,10/15/2024,12/05/2024,N,12/16/2024,12/15/2026,12/05/2024,12/06/2024,AAI,,,41.934168143,-87.690478257,POINT (-87.69047825732142 41.93416814341909)
15954-20241216,2994322,27926,1,ERRO INC,MONTROSE SALOON,2933 W MONTROSE AVE 1 #,CHICAGO,IL,60618,33,23,33-23,17,1477,Outdoor Patio,784,Sale of Liquor Outdoors on Private Property,15954,RENEW,,10/15/2024,12/04/2024,N,12/16/2024,12/15/2026,12/04/2024,12/05/2024,AAI,,60,41.961116939,-87.702274158,POINT (-87.70227415826348 41.961116939451195)
2856621-20241216,2996479,485605,2,EXQUISITE CONCEPT MEETING & EVENT CENTER INC.,EXQUISITE EVENTS,9015-9025 S HALSTED ST 1,CHICAGO,IL,60620,21,12,21-12,22,1050,Public Place of Amusement,746 | 1082,"Public Place of Amusement, Provides Entertainment, Room Rentals and Charges a Fee | Rental of Miscellaneous Items for Events and Parties",2856621,RENEW,,10/15/2024,11/20/2024,N,12/16/2024,12/15/2026,12/04/2024,12/05/2024,AAI,,,41.730353255,-87.643310361,POINT (-87.64331036134598 41.7303532548889)
14866-20241216,2994091,6574,1,THE PEEK INN INC,Pete's Place BAR,2825 W IRVING PARK RD,CHICAGO,IL,60618,35,10,35-10,17,1470,Tavern,829,Tavern - Consumption of Liquor on Premises,14866,RENEW,,10/15/2024,12/04/2024,N,12/16/2024,12/15/2026,12/04/2024,12/05/2024,AAI,,,41.953858398,-87.699316732,POINT (-87.69931673226301 41.953858397875656)
15952-20241216,2994321,27926,1,ERRO INC,MONTROSE SALOON,2933 W MONTROSE AVE 1 #,CHICAGO,IL,60618,33,23,33-23,17,1470,Tavern,829,Tavern - Consumption of Liquor on Premises,15952,RENEW,,10/15/2024,12/04/2024,N,12/16/2024,12/15/2026,12/04/2024,12/05/2024,AAI,,60,41.961116939,-87.702274158,POINT (-87.70227415826348 41.961116939451195)
1998509-20241216,2994992,347761,1,3135 W MONTROSE CORPORATION,TEMPLESTOWE PUB,3135 W MONTROSE AVE 1,CHICAGO,IL,60618,33,21,33-21,17,1470,Tavern,829,Tavern - Consumption of Liquor on Premises,1998509,RENEW,,10/15/2024,11/26/2024,N,12/16/2024,12/15/2026,11/26/2024,12/04/2024,AAI,,60,41.961083923,-87.707241209,POINT (-87.70724120876541 41.96108392312639)
19420-20241216,2994105,7934,1,"THE VILLAGE TAP, INC.","THE VILLAGE TAP, INC.",2055 W ROSCOE ST 1,CHICAGO,IL,60618,32,15,32-15,19,1470,Tavern,829,Tavern - Consumption of Liquor on Premises,19420,RENEW,,10/15/2024,12/03/2024,N,12/16/2024,12/15/2026,12/03/2024,12/04/2024,AAI,,,41.943081707,-87.680644053,POINT (-87.68064405309912 41.94308170715916)
19421-20241216,2994104,7934,1,"THE VILLAGE TAP, INC.","THE VILLAGE TAP, INC.",2055 W ROSCOE ST 1,CHICAGO,IL,60618,32,15,32-15,19,1477,Outdoor Patio,784,Sale of Liquor Outdoors on Private Property,19421,RENEW,,10/15/2024,12/03/2024,N,12/16/2024,12/15/2026,12/03/2024,12/04/2024,AAI,,,41.943081707,-87.680644053,POINT (-87.68064405309912 41.94308170715916)
2868672-20241216,2996133,464156,5,NEIGHBORHOOD TAPROOMS LLC - SERIES LLC,Uptown Taprooms,1261-1265 W WILSON AVE,CHICAGO,IL,60640,46,25,46-25,19,1477,Outdoor Patio,784,Sale of Liquor Outdoors on Private Property,2868672,RENEW,,10/15/2024,12/02/2024,N,12/16/2024,08/15/2026,12/02/2024,12/03/2024,AAI,,34,41.965223214,-87.662040733,POINT (-87.66204073261085 41.96522321424709)
1245001-20241216,2994194,15289,1,CLANCY'S LINCOLN AVENUE SILLY SALOON INC.,Gannon's Pub,4264 N LINCOLN AVE 1,CHICAGO,IL,60618,47,8,47-8,19,1477,Outdoor Patio,784,Sale of Liquor Outdoors on Private Property,1245001,RENEW,,10/15/2024,11/25/2024,N,12/16/2024,12/15/2026,11/25/2024,12/03/2024,AAI,,38,41.959479803,-87.682658732,POINT (-87.68265873225349 41.95947980300583)
2868671-20241216,2996135,464156,5,NEIGHBORHOOD TAPROOMS LLC - SERIES LLC,Uptown Taprooms,1261-1265 W WILSON AVE,CHICAGO,IL,60640,46,25,46-25,19,1050,Public Place of Amusement,746,"Public Place of Amusement, Provides Entertainment, Room Rentals and Charges a Fee",2868671,RENEW,,10/15/2024,12/02/2024,N,12/16/2024,08/15/2026,12/02/2024,12/03/2024,AAI,,34,41.965223214,-87.662040733,POINT (-87.66204073261085 41.96522321424709)
2868673-20241216,2996134,464156,5,NEIGHBORHOOD TAPROOMS LLC - SERIES LLC,Uptown Taprooms,1261-1265 W WILSON AVE,CHICAGO,IL,60640,46,25,46-25,19,1470,Tavern,829,Tavern - Consumption of Liquor on Premises,2868673,RENEW,,10/15/2024,12/02/2024,N,12/16/2024,08/15/2026,12/02/2024,12/03/2024,AAI,,34,41.965223214,-87.662040733,POINT (-87.66204073261085 41.96522321424709)
1800755-20241216,2994830,314026,1,"FOUR TREYS, INC.",FOUR TREYS,3333 N DAMEN AVE 1,CHICAGO,IL,60618,32,15,32-15,19,1470,Tavern,829,Tavern - Consumption of Liquor on Premises,1800755,RENEW,,10/15/2024,12/02/2024,N,12/16/2024,12/15/2026,12/02/2024,12/02/2024,AAI,,,41.94235041,-87.678282134,POINT (-87.67828213412655 41.94235041019631)
18052-20241216,2994326,28472,1,"WHERE'S PAPPA, INC",CHRISTINA'S PLACE,3759 N KEDZIE AVE 1,CHICAGO,IL,60618,33,12,33-12,17,1470,Tavern,829,Tavern - Consumption of Liquor on Premises,18052,RENEW,,10/15/2024,11/26/2024,N,12/16/2024,12/15/2026,11/26/2024,11/26/2024,AAI,,,41.950191673,-87.707768271,POINT (-87.70776827145029 41.95019167345904)
2064106-20241216,2995001,349511,3,"MOE'S RIVER NORTH, LLC",MOE'S CANTINA,153-155 W KINZIE ST 1-2,CHICAGO,IL,60654,42,46,42-46,18,1050,Public Place of Amusement,743,Provides Onsite Amusement or Entertainment,2064106,RENEW,,10/15/2024,11/22/2024,N,12/16/2024,12/15/2026,11/22/2024,11/25/2024,AAI,,,41.889068738,-87.633128169,POINT (-87.63312816939866 41.88906873753621)
2583408-20241216,2994234,16803,2,3932 WEST IRVING PARK CORPORATION,INDEPENDENCE TAP,3932-3934 W IRVING PARK RD 1,CHICAGO,IL,60618,45,27,45-27,17,1470,Tavern,829,Tavern - Consumption of Liquor on Premises,2583408,RENEW,,10/15/2024,11/18/2024,N,12/16/2024,12/15/2026,11/18/2024,11/20/2024,AAI,,,41.95377451,-87.726458707,POINT (-87.7264587067583 41.95377450976464)
2583410-20241216,2994233,16803,2,3932 WEST IRVING PARK CORPORATION,INDEPENDENCE TAP,3932-3934 W IRVING PARK RD 1,CHICAGO,IL,60618,45,27,45-27,17,1477,Outdoor Patio,784,Sale of Liquor Outdoors on Private Property,2583410,RENEW,,10/15/2024,11/18/2024,N,12/16/2024,12/15/2026,11/18/2024,11/20/2024,AAI,,,41.95377451,-87.726458707,POINT (-87.7264587067583 41.95377450976464)
1991203-20241216,2994987,346666,1,3808 WEST BELMONT CORPORATION,EDELWEISS,3808 W BELMONT AVE 1ST,CHICAGO,IL,60618,30,16,30-16,17,1470,Tavern,829,Tavern - Consumption of Liquor on Premises,1991203,RENEW,,10/15/2024,11/19/2024,N,12/16/2024,12/15/2026,11/19/2024,11/20/2024,AAI,,,41.939259217,-87.722696516,POINT (-87.72269651601053 41.93925921666965)
2652755-20241216,2996061,455000,1,THE GIANT PENNY WHISTLE LLC,THE GIANT PENNY WHISTLE,1854-1856 S BLUE ISLAND AVE 1,CHICAGO,IL,60608,25,7,25-7,12,1050,Public Place of Amusement,744,Provides Onsite Entertainment or Rentals,2652755,RENEW,,10/15/2024,10/15/2024,N,12/16/2024,12/15/2026,10/17/2024,11/19/2024,AAI,,,41.856518124,-87.662479691,POINT (-87.66247969129431 41.85651812447268)
2712335-20241216,2995562,408490,4,14 PARISH LLC,14 PARISH,1644 E 53RD ST 1,CHICAGO,IL,60615,5,20,5-20,2,1050,Public Place of Amusement,746,"Public Place of Amusement, Provides Entertainment, Room Rentals and Charges a Fee",2712335,RENEW,,10/15/2024,10/22/2024,N,12/16/2024,12/15/2026,11/18/2024,11/19/2024,AAI,,61,41.799704657,-87.585029609,POINT (-87.58502960921741 41.79970465653982)
2120976-20241216,2995032,356299,2,LOGAN SQUARE THEATRE LLC,THE LOGAN THEATRE,2646-2648 N MILWAUKEE AVE 1ST,CHICAGO,IL,60647,35,25,35-25,14,1050,Public Place of Amusement,743,Provides Onsite Amusement or Entertainment,2120976,RENEW,,10/15/2024,11/14/2024,N,12/16/2024,12/15/2026,11/18/2024,11/19/2024,AAI,,,41.929818108,-87.708865544,POINT (-87.70886554390576 41.92981810773004)
2637315-20241216,2996062,455000,1,THE GIANT PENNY WHISTLE LLC,THE GIANT PENNY WHISTLE,1854-1856 S BLUE ISLAND AVE 1,CHICAGO,IL,60608,25,7,25-7,12,1470,Tavern,829,Tavern - Consumption of Liquor on Premises,2637315,RENEW,,10/15/2024,10/15/2024,N,12/16/2024,12/15/2026,10/15/2024,11/19/2024,AAI,,,41.856518124,-87.662479691,POINT (-87.66247969129431 41.85651812447268)
1986414-20241216,2994984,346147,1,ZERO DEGREES KARAOKE BAR LLC,ZERO DEGREES KARAOKE BAR LLC,445-453 W 24TH ST 2ND 1,CHICAGO,IL,60616,11,37,11-37,9,1470,Tavern,829,Tavern - Consumption of Liquor on Premises,1986414,RENEW,,10/15/2024,11/08/2024,N,12/16/2024,12/15/2026,11/08/2024,11/08/2024,AAI,,,41.848958266,-87.638514086,POINT (-87.63851408560235 41.848958266062155)
2269341-20241216,2995218,380740,1,"THE DUCK INN, LLC",THE DUCK INN,2701 S ELEANOR ST 1,CHICAGO,IL,60608,11,1,11-1,9,1477,Outdoor Patio,784,Sale of Liquor Outdoors on Private Property,2269341,RENEW,,10/15/2024,11/01/2024,N,12/16/2024,12/15/2026,11/01/2024,11/04/2024,AAI,,,41.84453129,-87.660116452,POINT (-87.66011645213311 41.8445312897657)
2458702-20241216,2995520,405130,1,"ELSKE, LLC",ELSKE,1350 W RANDOLPH ST 1 & 2,CHICAGO,IL,60607,27,33,27-33,12,1477,Outdoor Patio,784,Sale of Liquor Outdoors on Private Property,2458702,RENEW,,10/15/2024,10/30/2024,N,12/16/2024,12/15/2026,10/30/2024,10/31/2024,AAI,,,41.884295958,-87.660770346,POINT (-87.66077034614932 41.88429595787893)
2579167-20241216,2995852,425042,1,RN PIZZA VENTURES LLC,PARLOR PIZZA BAR,405 N DEARBORN ST 1 AND MEZZ,CHICAGO,IL,60654,42,25,42-25,18,1477,Outdoor Patio,784,Sale of Liquor Outdoors on Private Property,2579167,RENEW,,10/15/2024,10/28/2024,N,12/16/2024,12/15/2026,10/28/2024,10/29/2024,AAI,,,41.889419805,-87.62944581,POINT (-87.62944581049157 41.889419804559985)
45505-20241216,2994379,35837,1,"MICHELLE'S BALLROOM, INC.",MICHELLE'S BALLROOM,2800 W BELMONT AVE 1ST,CHICAGO,IL,60618,33,2,33-2,17,1050,Public Place of Amusement,743,Provides Onsite Amusement or Entertainment,45505,RENEW,,10/15/2024,10/24/2024,N,12/16/2024,12/15/2026,10/25/2024,10/28/2024,AAI,,,41.939502381,-87.697849374,POINT (-87.69784937401641 41.93950238080945)
2506334-20241216,2995504,403623,1,TWO SIX COMPANY LLC,THE NATIVE,2417 N MILWAUKEE AVE,CHICAGO,IL,60647,1,30,1-30,14,1477,Outdoor Patio,784,Sale of Liquor Outdoors on Private Property,2506334,RENEW,,10/15/2024,10/24/2024,N,12/16/2024,12/15/2026,10/24/2024,10/25/2024,AAI,,,41.925199339,-87.700860946,POINT (-87.70086094607566 41.925199338560795)
2446159-20241216,2995505,403623,1,TWO SIX COMPANY LLC,THE NATIVE,2417 N MILWAUKEE AVE,CHICAGO,IL,60647,1,30,1-30,14,1470,Tavern,829,Tavern - Consumption of Liquor on Premises,2446159,RENEW,,10/15/2024,10/24/2024,N,12/16/2024,12/15/2026,10/24/2024,10/25/2024,AAI,,,41.925199339,-87.700860946,POINT (-87.70086094607566 41.925199338560795)
2872463-20241216,2996468,482850,3,WG TAVERN LLC,Whiskey Girl Tavern,6318-6320 N CLARK ST 1,CHICAGO,IL,60660,40,37,40-37,24,1050,Public Place of Amusement,744,Provides Onsite Entertainment or Rentals,2872463,RENEW,,10/15/2024,10/15/2024,N,12/16/2024,07/15/2026,10/22/2024,10/23/2024,AAI,,,41.996873036,-87.670432432,POINT (-87.67043243166162 41.99687303629295)
39955-20241216,2993848,4120,1,CLAUSE'S TAVERN INC.,ROSCOE VILLAGE PUB,2159 W ADDISON ST,CHICAGO,IL,60618,32,46,32-46,19,1470,Tavern,829,Tavern - Consumption of Liquor on Premises,39955,RENEW,,10/15/2024,10/16/2024,N,12/16/2024,12/15/2026,10/16/2024,10/17/2024,AAI,,,41.946691557,-87.683342458,POINT (-87.68334245838233 41.94669155744063)
2791730-20241216,2993847,4120,1,CLAUSE'S TAVERN INC.,ROSCOE VILLAGE PUB,2159 W ADDISON ST,CHICAGO,IL,60618,32,46,32-46,19,1477,Outdoor Patio,784,Sale of Liquor Outdoors on Private Property,2791730,RENEW,,10/15/2024,10/16/2024,N,12/16/2024,12/15/2026,10/16/2024,10/17/2024,AAI,,,41.946691557,-87.683342458,POINT (-87.68334245838233 41.94669155744063)
9255-20241216,2994481,86582,2,"SAM AND JOE'S LIQUORS, INC.",XIPPO,3759 N DAMEN AVE 1ST,CHICAGO,IL,60618,47,27,47-27,19,1470,Tavern,829,Tavern - Consumption of Liquor on Premises,9255,RENEW,,10/15/2024,10/15/2024,N,12/16/2024,12/15/2026,10/15/2024,10/16/2024,AAI,,38,41.95046614,-87.678505891,POINT (-87.67850589129722 41.950466140039374)
2121127-20241216,2994566,250887,1,J & E 2922-24 CORP.,Easy Street Pizza & Patio,2922-2924 W IRVING PARK RD 1,CHICAGO,IL,60618,33,25,33-25,17,1470,Tavern,829,Tavern - Consumption of Liquor on Premises,2121127,RENEW,,10/15/2024,10/15/2024,N,12/16/2024,12/15/2026,10/15/2024,10/16/2024,AAI,,,41.954066876,-87.701752552,POINT (-87.70175255165984 41.954066875501354)
2522195-20241216,2994937,339641,6,GMB PARTNERS LLC,HALF ACRE BEER COMPANY,2050 W BALMORAL AVE,CHICAGO,IL,60625,40,45,40-45,20,1477,Outdoor Patio,784,Sale of Liquor Outdoors on Private Property,2522195,RENEW,,10/15/2024,10/15/2024,N,12/16/2024,12/15/2026,10/15/2024,10/16/2024,AAI,,,41.979747942,-87.681538949,POINT (-87.6815389486624 41.97974794152861)
1820300-20241216,2994797,312609,1,"ORBIT ROOM CHICAGO, LLC",LUDLOW LIQUORS,2957-2959 N CALIFORNIA AVE 1,CHICAGO,IL,60618,35,19,35-19,14,1477,Outdoor Patio,784,Sale of Liquor Outdoors on Private Property,1820300,RENEW,,10/15/2024,10/15/2024,N,12/16/2024,12/15/2026,10/15/2024,10/16/2024,AAI,,,41.935625543,-87.697575316,POINT (-87.69757531622648 41.935625542674586)
2492246-20241216,2995527,406245,1,"MIRABELLA, INC",MIRABELLA ITALIAN CUISINE & BAR,3454 W ADDISON ST 1ST,CHICAGO,IL,60618,35,4,35-4,17,1477,Outdoor Patio,784,Sale of Liquor Outdoors on Private Property,2492246,RENEW,,10/15/2024,10/15/2024,N,12/16/2024,12/15/2026,10/15/2024,10/16/2024,AAI,,,41.946639593,-87.714949183,POINT (-87.71494918308186 41.946639592877055)
2993782-20241209,2993782,454724,4,ATHENA BOARD GAME CAFE LLC,Athena Board Game Cafe,1412 W LUNT AVE,CHICAGO,IL,60626,49,20,49-20,24,1050,Public Place of Amusement,746,"Public Place of Amusement, Provides Entertainment, Room Rentals and Charges a Fee",2993782,ISSUE,10/15/2024,10/15/2024,10/15/2024,N,12/09/2024,12/15/2026,12/09/2024,12/09/2024,AAI,,24,42.009224049,-87.666467672,POINT (-87.66646767151886 42.009224049026784)
2997042-20241203,2997042,511606,1,BB Escape Games LLC,ESCAPE ARTISTRY,1342 N MILWAUKEE AVE 2,CHICAGO,IL,60622,1,21,1-21,14,1050,Public Place of Amusement,746,"Public Place of Amusement, Provides Entertainment, Room Rentals and Charges a Fee",2997042,ISSUE,10/21/2024,10/21/2024,10/24/2024,N,12/03/2024,12/15/2026,12/03/2024,12/03/2024,AAI,,33,41.906104868,-87.671006755,POINT (-87.67100675475538 41.90610486833412)
2988081-20241127,2988081,510001,1,"AKILIA COSINA, INC.",Akilia Cosina,116 N ABERDEEN ST,CHICAGO,IL,60607,27,16,27-16,12,1050,Public Place of Amusement,746,"Public Place of Amusement, Provides Entertainment, Room Rentals and Charges a Fee",2988081,ISSUE,08/22/2024,08/22/2024,08/22/2024,N,11/27/2024,12/15/2026,11/27/2024,11/27/2024,AAI,,,41.883537699,-87.654560463,POINT (-87.65456046337651 41.88353769911732)
2993264-20241122,2993264,492727,1,RIA VENTURES LLC,PEARL CLUB,"495-499 N MILWAUKEE AVE BASEMENT, 1, MEZZ.",CHICAGO,IL,60654,27,11,27-11,12,1050,Public Place of Amusement,746,"Public Place of Amusement, Provides Entertainment, Room Rentals and Charges a Fee",2993264,ISSUE,10/01/2024,10/01/2024,10/01/2024,N,11/22/2024,12/15/2026,11/22/2024,11/22/2024,AAI,,,41.891134744,-87.647295851,POINT (-87.64729585102974 41.89113474402316)
2983100-20241120,2983100,509017,1,Rockwell on the River Events LLC,Rockwell on the River,3057 N ROCKWELL ST MAIN BLDG 2&4A,CHICAGO,IL,60618,35,5,35-5,14,1050,Public Place of Amusement,746,"Public Place of Amusement, Provides Entertainment, Room Rentals and Charges a Fee",2983100,ISSUE,07/19/2024,07/19/2024,07/19/2024,N,11/20/2024,12/15/2026,11/20/2024,11/20/2024,AAI,,,41.937394949,-87.69273769,POINT (-87.69273768966114 41.93739494901925)
281-20241116,2989431,24023,1,"DONMAR, INC.",The Hurley Tap,1645 W CORTLAND ST 1ST,CHICAGO,IL,60622,32,33,32-33,14,1470,Tavern,829,Tavern - Consumption of Liquor on Premises,281,RENEW,,09/15/2024,12/11/2024,N,11/16/2024,11/15/2026,12/11/2024,12/12/2024,AAI,,,41.915974566,-87.669621572,POINT (-87.66962157196225 41.91597456632108)
67920-20241116,2989385,20875,1,"CHAISE LOUNGE, INC.",DAVENPORT'S,1383 N MILWAUKEE AVE 1ST,CHICAGO,IL,60622,1,21,1-21,14,1050,Public Place of Amusement,743,Provides Onsite Amusement or Entertainment,67920,RENEW,,09/15/2024,02/06/2025,N,11/16/2024,11/15/2026,02/06/2025,02/07/2025,AAI,,33,41.907038391,-87.672015121,POINT (-87.67201512117582 41.90703839117248)
28268-20241116,2989282,11469,1,"POOH-BAH ENTERPRISES, INC.",Rick's Cabaret,1531 N KINGSBURY ST 1,CHICAGO,IL,60642,27,37,27-37,18,1470,Tavern,829,Tavern - Consumption of Liquor on Premises,28268,RENEW,,09/15/2024,10/16/2024,N,11/16/2024,11/15/2026,10/16/2024,02/10/2025,AAI,,,41.909054754,-87.652422204,POINT (-87.65242220436633 41.90905475445697)
35338-20241116,2989516,32810,2,"GOLD STAR BAR, INC.",GOLD STAR BAR,1755 W DIVISION ST 1ST,CHICAGO,IL,60622,1,10,1-10,12,1470,Tavern,829,Tavern - Consumption of Liquor on Premises,35338,RENEW,,09/15/2024,11/06/2024,N,11/16/2024,11/15/2026,11/06/2024,01/23/2025,AAI,,33,41.903162479,-87.672065045,POINT (-87.67206504456847 41.90316247857588)
2484107-20241116,2991049,405415,2,"1600 N. MILWAUKEE VENTURES, LLC",ROBEY HOTEL,1600-1618 N MILWAUKEE AVE 1-13,CHICAGO,IL,60647,1,,1-,14,1050,Public Place of Amusement,744,Provides Onsite Entertainment or Rentals,2484107,RENEW,,09/15/2024,09/16/2024,N,11/16/2024,11/15/2026,10/23/2024,10/24/2024,AAI,,33,41.910436799,-87.677761021,POINT (-87.67776102073448 41.91043679855338)
60423-20241116,2989732,64754,1,J & Z 1 INC.,E Z INN,921 N WESTERN AVE 1ST,CHICAGO,IL,60622,36,6,36-6,12,1470,Tavern,829,Tavern - Consumption of Liquor on Premises,60423,RENEW,,09/15/2024,12/11/2024,N,11/16/2024,11/15/2026,12/11/2024,12/12/2024,AAI,,,41.898290878,-87.686760477,POINT (-87.6867604770308 41.89829087839354)
31191-20241116,2989727,63784,1,"PUB FESTIVALS, INC.",LOTTIE'S PUB,1925 W CORTLAND ST 1ST,CHICAGO,IL,60622,32,31,32-31,14,1470,Tavern,829,Tavern - Consumption of Liquor on Premises,31191,RENEW,,09/15/2024,12/13/2024,N,11/16/2024,11/15/2026,12/13/2024,12/16/2024,AAI,,,41.91585488,-87.676217909,POINT (-87.6762179092616 41.915854880451626)
1490838-20241116,2990111,275920,1,"6148 MILWAUKEE, INC.",JET'S PUBLIC HOUSE,6148 N MILWAUKEE AVE 1,CHICAGO,IL,60646,39,51,39-51,16,1470,Tavern,829,Tavern - Consumption of Liquor on Premises,1490838,RENEW,,09/15/2024,11/09/2024,N,11/16/2024,11/15/2026,11/09/2024,12/16/2024,AAI,,,41.993375763,-87.784275219,POINT (-87.7842752194862 41.993375763055695)
2550192-20241116,2990834,392778,1,UNDER THE GUN THEATER LLC,THE NEWPORT THEATER,3435 N SHEFFIELD AVE 2,CHICAGO,IL,60657,44,36,44-36,19,1050,Public Place of Amusement,698,Live Theatrical and Other Live Cultural Performances Where Organization is Operating as an Incidental Use In a Building Primarily Used In The Conduct of Activities of a Not-For-Profit Organization,2550192,RENEW,,09/15/2024,10/16/2024,N,11/16/2024,11/15/2026,10/16/2024,10/23/2024,AAI,,17,41.944579972,-87.654101654,POINT (-87.65410165350893 41.944579972002636)
2574572-20241116,2991080,408589,2,"THE JOINERY STUDIOS, LLC",THE JOINERY STUDIOS,2533-2537 W HOMER ST 1,CHICAGO,IL,60647,1,29,1-29,14,1050,Public Place of Amusement,746,"Public Place of Amusement, Provides Entertainment, Room Rentals and Charges a Fee",2574572,RENEW,,09/15/2024,09/18/2024,N,11/16/2024,11/15/2026,10/09/2024,10/10/2024,AAI,,,41.916526606,-87.691166875,POINT (-87.69116687526183 41.91652660648791)
2677939-20241116,2990112,275920,1,"6148 MILWAUKEE, INC.",JET'S PUBLIC HOUSE,6148 N MILWAUKEE AVE 1,CHICAGO,IL,60646,39,51,39-51,16,1477,Outdoor Patio,784,Sale of Liquor Outdoors on Private Property,2677939,RENEW,,09/15/2024,11/09/2024,N,11/16/2024,11/15/2026,11/09/2024,12/16/2024,AAI,,,41.993375763,-87.784275219,POINT (-87.7842752194862 41.993375763055695)
6564-20241116,2989454,25419,1,AUGUSTA ENTERPRISES INC,INNER TOWN PUB,1935 W THOMAS ST,CHICAGO,IL,60622,1,4,1-4,12,1470,Tavern,829,Tavern - Consumption of Liquor on Premises,6564,RENEW,,09/15/2024,10/15/2024,N,11/16/2024,11/15/2026,10/15/2024,10/16/2024,AAI,,,41.901279822,-87.676127085,POINT (-87.67612708534384 41.90127982229958)
2850831-20241116,2992127,483707,2,1501 N KINGSBURY OPERATION LLC,Candlelite Lincoln Park,1501-1519 N KINGSBURY ST 1ST AND 2ND,CHICAGO,IL,60642,27,37,27-37,18,1050,Public Place of Amusement,746,"Public Place of Amusement, Provides Entertainment, Room Rentals and Charges a Fee",2850831,RENEW,,09/15/2024,10/12/2024,N,11/16/2024,10/15/2026,01/21/2025,01/22/2025,AAI,,,41.908305786,-87.651799571,POINT (-87.65179957092685 41.90830578569197)
1822915-20241116,2989544,34905,1,"MILWAUKEE AVENUE, INC.",NICK'S BEER GARDEN,1516 N MILWAUKEE AVE 1ST,CHICAGO,IL,60622,1,8,1-8,14,1050,Public Place of Amusement,743,Provides Onsite Amusement or Entertainment,1822915,RENEW,,09/15/2024,10/17/2024,N,11/16/2024,11/15/2026,10/25/2024,10/28/2024,AAI,,33,41.908995615,-87.675531656,POINT (-87.67553165647173 41.90899561514011)
2492322-20241116,2990222,299629,2,CHICAGO CHILDREN'S THEATRE,CHICAGO CHILDREN'S THEATRE,100-106 S RACINE AVE 1-2,CHICAGO,IL,60607,27,2,27-2,12,1050,Public Place of Amusement,708 | 746 | 767,"Miscellaneous Commercial Services | Public Place of Amusement, Provides Entertainment, Room Rentals and Charges a Fee | Retail Sales of General Merchandise and Non-Perishable Food",2492322,RENEW,,09/15/2024,09/17/2024,N,11/16/2024,11/15/2026,10/22/2024,10/23/2024,AAI,,,41.880263454,-87.657244494,POINT (-87.65724449419724 41.880263454464036)
2121291-20241116,2990658,366992,1,THE STERLING ROOM LLC,TORTOISE CLUB,350 N STATE ST 1,CHICAGO,IL,60654,42,27,42-27,18,1477,Outdoor Patio,784,Sale of Liquor Outdoors on Private Property,2121291,RENEW,,09/15/2024,09/18/2024,N,11/16/2024,11/15/2026,09/18/2024,09/19/2024,AAI,,,41.888895928,-87.628200083,POINT (-87.62820008276263 41.888895927694364)
2443282-20241116,2991013,403501,1,"WINTER'S JAZZ CLUB, LLC",WINTER'S JAZZ CLUB,411 E ILLINOIS ST  50,CHICAGO,IL,60611,42,31,42-31,18,1470,Tavern,829,Tavern - Consumption of Liquor on Premises,2443282,RENEW,,09/15/2024,09/15/2024,N,11/16/2024,11/15/2026,09/15/2024,09/16/2024,AAI,,,41.89095012,-87.61718975,POINT (-87.61718975017543 41.89095012024265)
26248-20241116,2989274,10775,1,"CLUB LUCKY, INC.",CLUB LUCKY,1822-1824 W WABANSIA AVE,CHICAGO,IL,60622,32,35,32-35,14,1470,Tavern,829,Tavern - Consumption of Liquor on Premises,26248,RENEW,,09/15/2024,09/18/2024,N,11/16/2024,11/15/2026,09/18/2024,09/19/2024,AAI,,,41.912476985,-87.673618468,POINT (-87.67361846778101 41.91247698463728)
2443284-20241116,2991014,403501,1,"WINTER'S JAZZ CLUB, LLC",WINTER'S JAZZ CLUB,411 E ILLINOIS ST  50,CHICAGO,IL,60611,42,31,42-31,18,1050,Public Place of Amusement,744,Provides Onsite Entertainment or Rentals,2443284,RENEW,,09/15/2024,09/15/2024,N,11/16/2024,11/15/2026,10/08/2024,10/09/2024,AAI,,,41.89095012,-87.61718975,POINT (-87.61718975017543 41.89095012024265)
2137314-20241116,2989810,86301,5,"WHERE'S THE DUKE, INC.",JOE'S BAR,940 W WEED ST 1ST&MEZZ,CHICAGO,IL,60642,27,46,27-46,18,1477,Outdoor Patio,784,Sale of Liquor Outdoors on Private Property,2137314,RENEW,,09/15/2024,09/15/2024,N,11/16/2024,11/15/2026,09/15/2024,09/16/2024,AAI,,,41.90989553,-87.652772439,POINT (-87.65277243899028 41.9098955303975)
8298-20241116,2989460,25840,1,OLA'S LIQUORS INC,OLA'S LIQUORS,947 N DAMEN AVE 1ST,CHICAGO,IL,60622,36,11,36-11,12,1470,Tavern,829,Tavern - Consumption of Liquor on Premises,8298,RENEW,,09/15/2024,09/22/2024,N,11/16/2024,11/15/2026,09/22/2024,09/23/2024,AAI,,,41.899159355,-87.676997382,POINT (-87.67699738237337 41.89915935482376)
2541750-20241116,2991198,416826,1,ONCE UPON A PARTY BANQUET INC.,ONCE UPON A PARTY BANQUET,5911 W MONTROSE AVE 1,CHICAGO,IL,60634,38,33,38-33,16,1050,Public Place of Amusement,746,"Public Place of Amusement, Provides Entertainment, Room Rentals and Charges a Fee",2541750,RENEW,,09/15/2024,11/02/2024,N,11/16/2024,11/15/2026,12/09/2024,12/10/2024,AAI,,,41.960268757,-87.775025705,POINT (-87.7750257046408 41.96026875684121)
19580-20241116,2989485,28807,1,4 3 9 NIGHT CLUB INCORPORATED,439 NIGHT CLUB INC,439 N OGDEN AVE 1ST,CHICAGO,IL,60642,27,40,27-40,12,1470,Tavern,829,Tavern - Consumption of Liquor on Premises,19580,RENEW,,09/15/2024,10/21/2024,N,11/16/2024,11/15/2026,10/21/2024,10/22/2024,AAI,,,41.889975288,-87.659762866,POINT (-87.65976286576765 41.889975288186825)
12859-20241116,2989472,27127,1,"LOUIE'S PUB, INC.",LOUIE'S PUB,1659 W NORTH AVE,CHICAGO,IL,60622,1,25,1-25,14,1470,Tavern,829,Tavern - Consumption of Liquor on Premises,12859,RENEW,,09/15/2024,09/17/2024,N,11/16/2024,11/15/2026,09/17/2024,09/18/2024,AAI,,33,41.910488332,-87.670070421,POINT (-87.67007042084737 41.91048833165543)
2872875-20241116,2992320,490320,1,JENISHA 03 INC,80 ARMANETTI LIQOURS,8010 S KEDZIE AVE,CHICAGO,IL,60652,18,8,18-8,8,1470,Tavern,829,Tavern - Consumption of Liquor on Premises,2872875,RENEW,,09/15/2024,10/21/2024,N,11/16/2024,11/15/2026,10/21/2024,10/22/2024,AAI,,,41.747615838,-87.702479662,POINT (-87.7024796621383 41.74761583788678)
2867792-20241116,2992269,489089,1,PIZZA LOBO ANDERSONVILLE LLC,PIZZA LOBO,5457 N CLARK ST 1,CHICAGO,IL,60640,48,7,48-7,20,1477,Outdoor Patio,784,Sale of Liquor Outdoors on Private Property,2867792,RENEW,,09/15/2024,09/15/2024,N,11/16/2024,10/15/2026,09/15/2024,09/16/2024,AAI,,22,41.981565183,-87.668270463,POINT (-87.66827046294118 41.981565182899864)
1478965-20241116,2989637,54546,2,"MARCHETTI SPECIAL EVENTS, LTD.","MARCHETTI SPECIAL EVENTS, LTD.",825 W ERIE ST 1,CHICAGO,IL,60642,27,11,27-11,12,1477,Outdoor Patio,784,Sale of Liquor Outdoors on Private Property,1478965,RENEW,,09/15/2024,12/06/2024,N,11/16/2024,11/15/2026,12/06/2024,12/09/2024,AAI,,,41.893249234,-87.648792057,POINT (-87.64879205703046 41.89324923448882)
32588-20241116,2989631,53847,1,O'BRIEN INDUSTRIES CORPORATION,Ma O' Briens,5734 N ELSTON AVE 1ST,CHICAGO,IL,60646,45,39,45-39,16,1470,Tavern,829,Tavern - Consumption of Liquor on Premises,32588,RENEW,,09/15/2024,10/25/2024,N,11/16/2024,11/15/2026,10/25/2024,10/28/2024,AAI,,,41.985594877,-87.769698196,POINT (-87.76969819623302 41.985594877372456)
2458701-20241116,2991051,405415,2,"1600 N. MILWAUKEE VENTURES, LLC",ROBEY HOTEL,1600-1618 N MILWAUKEE AVE 1-13,CHICAGO,IL,60647,1,,1-,14,1477,Outdoor Patio,784,Sale of Liquor Outdoors on Private Property,2458701,RENEW,,09/15/2024,09/16/2024,N,11/16/2024,11/15/2026,09/16/2024,09/17/2024,AAI,,33,41.910436799,-87.677761021,POINT (-87.67776102073448 41.91043679855338)
2078849-20241116,2989930,246146,2,ANDREA'S CAFE INC.,CAFE CON LECHE D' NOCHE,2710-2714 N MILWAUKEE AVE 1,CHICAGO,IL,60647,35,25,35-25,14,1477,Outdoor Patio,784,Sale of Liquor Outdoors on Private Property,2078849,RENEW,,09/15/2024,11/04/2024,N,11/16/2024,11/15/2026,11/04/2024,11/18/2024,AAI,,,41.930392308,-87.709805175,POINT (-87.70980517549702 41.930392307909585)
38491-20241116,2989526,33686,1,"MJE ENTERPRISES, INC.",MARY'S PLACE,6300 N MILWAUKEE AVE 1ST,CHICAGO,IL,60646,39,51,39-51,16,1470,Tavern,829,Tavern - Consumption of Liquor on Premises,38491,RENEW,,09/15/2024,10/28/2024,N,11/16/2024,11/15/2026,10/28/2024,10/29/2024,AAI,,,41.995126921,-87.785950004,POINT (-87.78595000421599 41.995126920643685)
39698-20241116,2989333,15848,1,"FIGUEROA BAR, INC.",DAMEN TAVERN,1958 W HURON ST 1,CHICAGO,IL,60622,36,45,36-45,12,1470,Tavern,829,Tavern - Consumption of Liquor on Premises,39698,RENEW,,09/15/2024,12/05/2024,N,11/16/2024,11/15/2026,12/05/2024,12/06/2024,AAI,,29,41.894205346,-87.676881706,POINT (-87.67688170620728 41.89420534591261)
45679-20241116,2989547,35907,1,"THE BLUE NOTE, INC.",THE POINT,1565 N MILWAUKEE AVE 1,CHICAGO,IL,60622,1,8,1-8,14,1050,Public Place of Amusement,743,Provides Onsite Amusement or Entertainment,45679,RENEW,,09/15/2024,11/13/2024,N,11/16/2024,11/15/2026,12/05/2024,12/06/2024,AAI,,33,41.910035084,-87.676704689,POINT (-87.67670468869552 41.91003508427626)
1047447-20241116,2989853,204664,1,"A PITZALLA BLUES, INC.",THE REVEL ROOM,1566 N MILWAUKEE AVE,CHICAGO,IL,60622,1,8,1-8,14,1470,Tavern,829,Tavern - Consumption of Liquor on Premises,1047447,RENEW,,09/15/2024,09/15/2024,N,11/16/2024,11/15/2026,09/15/2024,09/16/2024,AAI,,33,41.909879819,-87.676913798,POINT (-87.67691379793119 41.90987981937775)
2163555-20241116,2990683,373590,1,CLARK HUBBARD LLC,BUB CITY - TH,435-437 N CLARK ST 1,CHICAGO,IL,60654,42,55,42-55,18,1050,Public Place of Amusement,743,Provides Onsite Amusement or Entertainment,2163555,RENEW,,09/15/2024,10/22/2024,N,11/16/2024,11/15/2026,10/22/2024,10/22/2024,AAI,,,41.890207793,-87.630940842,POINT (-87.63094084169998 41.89020779260571)
2369041-20241116,2990044,262299,3,REAL SIMPLE INC.,BOURBON ON DIVISION,2050 W DIVISION ST 1ST & 2ND,CHICAGO,IL,60622,1,5,1-5,14,1050,Public Place of Amusement,746,"Public Place of Amusement, Provides Entertainment, Room Rentals and Charges a Fee",2369041,RENEW,,09/15/2024,11/13/2024,N,11/16/2024,11/15/2026,12/05/2024,12/06/2024,AAI,,33,41.903263621,-87.67927827,POINT (-87.67927826952335 41.9032636208865)
2233070-20241116,2989528,33825,1,ROBERTA NOWAKOWSKI INC,SPORTSMANS CLUB,948 N WESTERN AVE 1ST,CHICAGO,IL,60622,36,1,36-1,12,1477,Outdoor Patio,784,Sale of Liquor Outdoors on Private Property,2233070,RENEW,,09/15/2024,09/15/2024,N,11/16/2024,11/15/2026,09/15/2024,09/16/2024,AAI,,,41.899017357,-87.687073079,POINT (-87.68707307892538 41.89901735734197)
40087-20241116,2989335,15899,1,THE MATCHBOX ON MILWAUKEE LLC,THE MATCHBOX,770 N MILWAUKEE AVE 1ST,CHICAGO,IL,60642,27,54,27-54,12,1470,Tavern,829,Tavern - Consumption of Liquor on Premises,40087,RENEW,,09/15/2024,09/16/2024,N,11/16/2024,11/15/2026,09/16/2024,09/17/2024,AAI,,29,41.895796244,-87.654953596,POINT (-87.65495359564429 41.89579624448361)
2856410-20241116,2992171,484990,1,Puttery Chicago LP,PUTTERY,932 W RANDOLPH ST,CHICAGO,IL,60607,27,16,27-16,12,1050,Public Place of Amusement,746,"Public Place of Amusement, Provides Entertainment, Room Rentals and Charges a Fee",2856410,RENEW,,09/15/2024,09/16/2024,N,11/16/2024,10/15/2026,10/16/2024,10/17/2024,AAI,,,41.884456103,-87.651000844,POINT (-87.65100084413996 41.88445610309356)
38964-20241116,2989529,33825,1,ROBERTA NOWAKOWSKI INC,SPORTSMANS CLUB,948 N WESTERN AVE 1ST,CHICAGO,IL,60622,36,1,36-1,12,1470,Tavern,829,Tavern - Consumption of Liquor on Premises,38964,RENEW,,09/15/2024,09/15/2024,N,11/16/2024,11/15/2026,09/15/2024,09/16/2024,AAI,,,41.899017357,-87.687073079,POINT (-87.68707307892538 41.89901735734197)
2458683-20241116,2991050,405415,2,"1600 N. MILWAUKEE VENTURES, LLC",ROBEY HOTEL,1600-1618 N MILWAUKEE AVE 1-13,CHICAGO,IL,60647,1,,1-,14,1477,Outdoor Patio,784,Sale of Liquor Outdoors on Private Property,2458683,RENEW,,09/15/2024,09/16/2024,N,11/16/2024,11/15/2026,09/16/2024,09/17/2024,AAI,,33,41.910436799,-87.677761021,POINT (-87.67776102073448 41.91043679855338)
2021605-20241116,2990349,317383,1,"AJD RESTAURANT GROUP, LLC",SULLY'S HOUSE,1501 N DAYTON ST 1,CHICAGO,IL,60642,2,20,2-20,18,1477,Outdoor Patio,784,Sale of Liquor Outdoors on Private Property,2021605,RENEW,,09/15/2024,11/06/2024,N,11/16/2024,11/15/2026,11/06/2024,11/14/2024,AAI,,,41.908619727,-87.649294571,POINT (-87.64929457094323 41.90861972732258)
42832-20241116,2989542,34905,1,"MILWAUKEE AVENUE, INC.",NICK'S BEER GARDEN,1516 N MILWAUKEE AVE 1ST,CHICAGO,IL,60622,1,8,1-8,14,1470,Tavern,829,Tavern - Consumption of Liquor on Premises,42832,RENEW,,09/15/2024,10/17/2024,N,11/16/2024,11/15/2026,10/17/2024,10/18/2024,AAI,,33,41.908995615,-87.675531656,POINT (-87.67553165647173 41.90899561514011)
1921437-20241116,2990353,317383,1,"AJD RESTAURANT GROUP, LLC",SULLY'S HOUSE,1501 N DAYTON ST 1,CHICAGO,IL,60642,2,20,2-20,18,1050,Public Place of Amusement,743,Provides Onsite Amusement or Entertainment,1921437,RENEW,,09/15/2024,11/06/2024,N,11/16/2024,11/15/2026,11/14/2024,11/14/2024,AAI,,,41.908619727,-87.649294571,POINT (-87.64929457094323 41.90861972732258)
